{
"type": "FeatureCollection",
"name": "aviation_annual",
"crs": { "type": "name", "properties": { "name": "urn:ogc:def:crs:OGC:1.3:CRS84" } },
"features": [
{ "type": "Feature", "properties": { "year": 2023, "airport_name": "INDIRA GANDHI INTL", "domestic_emission": 2423054.078, "international_emission": 4262724.404, "total_emission": 6685778.482 }, "geometry": { "type": "Point", "coordinates": [ 77.09519, 28.55563 ] } },
{ "type": "Feature", "properties": { "year": 2024, "airport_name": "INDIRA GANDHI INTL", "domestic_emission": 2180775.392, "international_emission": 4117618.57, "total_emission": 6298393.962 }, "geometry": { "type": "Point", "coordinates": [ 77.09519, 28.55563 ] } },
{ "type": "Feature", "properties": { "year": 2022, "airport_name": "INDIRA GANDHI INTL", "domestic_emission": 2527934.025, "international_emission": 3607451.96, "total_emission": 6135385.985 }, "geometry": { "type": "Point", "coordinates": [ 77.09519, 28.55563 ] } },
{ "type": "Feature", "properties": { "year": 2021, "airport_name": "INDIRA GANDHI INTL", "domestic_emission": 2122361.862, "international_emission": 1996859.997, "total_emission": 4119221.859 }, "geometry": { "type": "Point", "coordinates": [ 77.09519, 28.55563 ] } },
{ "type": "Feature", "properties": { "year": 2023, "airport_name": "CHHATRAPATI SHIVAJI INTERNATIONAL", "domestic_emission": 1522351.71, "international_emission": 2645780.218, "total_emission": 4168131.928 }, "geometry": { "type": "Point", "coordinates": [ 72.86789703, 19.08869934 ] } },
{ "type": "Feature", "properties": { "year": 2024, "airport_name": "CHHATRAPATI SHIVAJI INTERNATIONAL", "domestic_emission": 1378394.68, "international_emission": 2569449.729, "total_emission": 3947844.409 }, "geometry": { "type": "Point", "coordinates": [ 72.86789703, 19.08869934 ] } },
{ "type": "Feature", "properties": { "year": 2022, "airport_name": "CHHATRAPATI SHIVAJI INTERNATIONAL", "domestic_emission": 1511776.717, "international_emission": 1874612.843, "total_emission": 3386389.56 }, "geometry": { "type": "Point", "coordinates": [ 72.86789703, 19.08869934 ] } },
{ "type": "Feature", "properties": { "year": 2024, "airport_name": "KEMPEGOWDA INTL", "domestic_emission": 1240981.834, "international_emission": 866917.013, "total_emission": 2107898.847 }, "geometry": { "type": "Point", "coordinates": [ 77.706299, 13.1979 ] } },
{ "type": "Feature", "properties": { "year": 2023, "airport_name": "KEMPEGOWDA INTL", "domestic_emission": 1353516.032, "international_emission": 903674.884, "total_emission": 2257190.916 }, "geometry": { "type": "Point", "coordinates": [ 77.706299, 13.1979 ] } },
{ "type": "Feature", "properties": { "year": 2021, "airport_name": "CHHATRAPATI SHIVAJI INTERNATIONAL", "domestic_emission": 1190955.261, "international_emission": 1017739.581, "total_emission": 2208694.842 }, "geometry": { "type": "Point", "coordinates": [ 72.86789703, 19.08869934 ] } },
{ "type": "Feature", "properties": { "year": 2022, "airport_name": "KEMPEGOWDA INTL", "domestic_emission": 1274386.85, "international_emission": 697087.9743, "total_emission": 1971474.825 }, "geometry": { "type": "Point", "coordinates": [ 77.706299, 13.1979 ] } },
{ "type": "Feature", "properties": { "year": 2023, "airport_name": "CHENNAI INTL", "domestic_emission": 628525.3263, "international_emission": 890640.2294, "total_emission": 1519165.556 }, "geometry": { "type": "Point", "coordinates": [ 80.169296, 12.990005 ] } },
{ "type": "Feature", "properties": { "year": 2024, "airport_name": "HYDERABAD INTL", "domestic_emission": 663585.0325, "international_emission": 547117.4939, "total_emission": 1210702.526 }, "geometry": { "type": "Point", "coordinates": [ 78.429855, 17.231318 ] } },
{ "type": "Feature", "properties": { "year": 2024, "airport_name": "CHENNAI INTL", "domestic_emission": 552618.8211, "international_emission": 823009.4029, "total_emission": 1375628.224 }, "geometry": { "type": "Point", "coordinates": [ 80.169296, 12.990005 ] } },
{ "type": "Feature", "properties": { "year": 2021, "airport_name": "KEMPEGOWDA INTL", "domestic_emission": 1094653.493, "international_emission": 392681.2711, "total_emission": 1487334.764 }, "geometry": { "type": "Point", "coordinates": [ 77.706299, 13.1979 ] } },
{ "type": "Feature", "properties": { "year": 2023, "airport_name": "HYDERABAD INTL", "domestic_emission": 704712.6187, "international_emission": 558751.3987, "total_emission": 1263464.017 }, "geometry": { "type": "Point", "coordinates": [ 78.429855, 17.231318 ] } },
{ "type": "Feature", "properties": { "year": 2022, "airport_name": "CHENNAI INTL", "domestic_emission": 627139.5098, "international_emission": 732693.1666, "total_emission": 1359832.676 }, "geometry": { "type": "Point", "coordinates": [ 80.169296, 12.990005 ] } },
{ "type": "Feature", "properties": { "year": 2022, "airport_name": "HYDERABAD INTL", "domestic_emission": 693034.5754, "international_emission": 501042.8415, "total_emission": 1194077.417 }, "geometry": { "type": "Point", "coordinates": [ 78.429855, 17.231318 ] } },
{ "type": "Feature", "properties": { "year": 2023, "airport_name": "NETAJI SUBASH CHANDRA BOSE INTL", "domestic_emission": 779225.8993, "international_emission": 240723.3449, "total_emission": 1019949.244 }, "geometry": { "type": "Point", "coordinates": [ 88.44670105, 22.65469933 ] } },
{ "type": "Feature", "properties": { "year": 2024, "airport_name": "NETAJI SUBASH CHANDRA BOSE INTL", "domestic_emission": 695588.2129, "international_emission": 219074.9509, "total_emission": 914663.1638 }, "geometry": { "type": "Point", "coordinates": [ 88.44670105, 22.65469933 ] } },
{ "type": "Feature", "properties": { "year": 2021, "airport_name": "CHENNAI INTL", "domestic_emission": 547620.2002, "international_emission": 411502.0435, "total_emission": 959122.2437 }, "geometry": { "type": "Point", "coordinates": [ 80.169296, 12.990005 ] } },
{ "type": "Feature", "properties": { "year": 2022, "airport_name": "NETAJI SUBASH CHANDRA BOSE INTL", "domestic_emission": 840298.3143, "international_emission": 170598.3902, "total_emission": 1010896.705 }, "geometry": { "type": "Point", "coordinates": [ 88.44670105, 22.65469933 ] } },
{ "type": "Feature", "properties": { "year": 2021, "airport_name": "HYDERABAD INTL", "domestic_emission": 601026.4888000001, "international_emission": 261038.0145, "total_emission": 862064.5033 }, "geometry": { "type": "Point", "coordinates": [ 78.429855, 17.231318 ] } },
{ "type": "Feature", "properties": { "year": 2023, "airport_name": "COCHIN INTL", "domestic_emission": 223973.0969, "international_emission": 555383.7605, "total_emission": 779356.8574 }, "geometry": { "type": "Point", "coordinates": [ 76.401901, 10.152 ] } },
{ "type": "Feature", "properties": { "year": 2024, "airport_name": "COCHIN INTL", "domestic_emission": 198416.5991, "international_emission": 525208.8257, "total_emission": 723625.4248 }, "geometry": { "type": "Point", "coordinates": [ 76.401901, 10.152 ] } },
{ "type": "Feature", "properties": { "year": 2021, "airport_name": "NETAJI SUBASH CHANDRA BOSE INTL", "domestic_emission": 733730.9742000001, "international_emission": 76169.31552, "total_emission": 809900.2898 }, "geometry": { "type": "Point", "coordinates": [ 88.44670105, 22.65469933 ] } },
{ "type": "Feature", "properties": { "year": 2022, "airport_name": "COCHIN INTL", "domestic_emission": 194943.0839, "international_emission": 516993.1276, "total_emission": 711936.2114 }, "geometry": { "type": "Point", "coordinates": [ 76.401901, 10.152 ] } },
{ "type": "Feature", "properties": { "year": 2024, "airport_name": "SARDAR VALLABHBHAI PATEL INTL", "domestic_emission": 316491.6397, "international_emission": 222642.4848, "total_emission": 539134.1245 }, "geometry": { "type": "Point", "coordinates": [ 72.634697, 23.0772 ] } },
{ "type": "Feature", "properties": { "year": 2023, "airport_name": "SARDAR VALLABHBHAI PATEL INTL", "domestic_emission": 358036.1838, "international_emission": 227774.8086, "total_emission": 585810.9924 }, "geometry": { "type": "Point", "coordinates": [ 72.634697, 23.0772 ] } },
{ "type": "Feature", "properties": { "year": 2022, "airport_name": "SARDAR VALLABHBHAI PATEL INTL", "domestic_emission": 342003.3737, "international_emission": 181014.9094, "total_emission": 523018.2831 }, "geometry": { "type": "Point", "coordinates": [ 72.634697, 23.0772 ] } },
{ "type": "Feature", "properties": { "year": 2021, "airport_name": "COCHIN INTL", "domestic_emission": 171274.0534, "international_emission": 285335.0868, "total_emission": 456609.1402 }, "geometry": { "type": "Point", "coordinates": [ 76.401901, 10.152 ] } },
{ "type": "Feature", "properties": { "year": 2023, "airport_name": "PUNE", "domestic_emission": 369837.1644, "international_emission": 17860.1668, "total_emission": 387697.3312 }, "geometry": { "type": "Point", "coordinates": [ 73.919701, 18.5821 ] } },
{ "type": "Feature", "properties": { "year": 2024, "airport_name": "PUNE", "domestic_emission": 330006.5448, "international_emission": 18221.41452, "total_emission": 348227.9593 }, "geometry": { "type": "Point", "coordinates": [ 73.919701, 18.5821 ] } },
{ "type": "Feature", "properties": { "year": 2022, "airport_name": null, "domestic_emission": 324382.7022, "international_emission": 50231.11443, "total_emission": 374613.8166 }, "geometry": { "type": "Point", "coordinates": [ 73.831398, 15.3808 ] } },
{ "type": "Feature", "properties": { "year": 2024, "airport_name": null, "domestic_emission": 102756.2452, "international_emission": 216110.7924, "total_emission": 318867.0376 }, "geometry": { "type": "Point", "coordinates": [ 76.920097, 8.48212 ] } },
{ "type": "Feature", "properties": { "year": 2021, "airport_name": "SARDAR VALLABHBHAI PATEL INTL", "domestic_emission": 325403.6389, "international_emission": 81660.55029, "total_emission": 407064.1891 }, "geometry": { "type": "Point", "coordinates": [ 72.634697, 23.0772 ] } },
{ "type": "Feature", "properties": { "year": 2023, "airport_name": null, "domestic_emission": 107514.9063, "international_emission": 212906.241, "total_emission": 320421.1473 }, "geometry": { "type": "Point", "coordinates": [ 76.920097, 8.48212 ] } },
{ "type": "Feature", "properties": { "year": 2023, "airport_name": "CHAUDHARY CHARAN SINGH INTL", "domestic_emission": 209156.1593, "international_emission": 101191.6296, "total_emission": 310347.7888 }, "geometry": { "type": "Point", "coordinates": [ 80.88929749, 26.76059914 ] } },
{ "type": "Feature", "properties": { "year": 2024, "airport_name": "CHAUDHARY CHARAN SINGH INTL", "domestic_emission": 184971.2787, "international_emission": 103298.1476, "total_emission": 288269.4263 }, "geometry": { "type": "Point", "coordinates": [ 80.88929749, 26.76059914 ] } },
{ "type": "Feature", "properties": { "year": 2023, "airport_name": null, "domestic_emission": 252599.6562, "international_emission": 65806.09878, "total_emission": 318405.755 }, "geometry": { "type": "Point", "coordinates": [ 73.831398, 15.3808 ] } },
{ "type": "Feature", "properties": { "year": 2022, "airport_name": "PUNE", "domestic_emission": 339246.3779, "international_emission": 8741.854632, "total_emission": 347988.2326 }, "geometry": { "type": "Point", "coordinates": [ 73.919701, 18.5821 ] } },
{ "type": "Feature", "properties": { "year": 2022, "airport_name": "CHAUDHARY CHARAN SINGH INTL", "domestic_emission": 201526.0698, "international_emission": 114250.4248, "total_emission": 315776.4946 }, "geometry": { "type": "Point", "coordinates": [ 80.88929749, 26.76059914 ] } },
{ "type": "Feature", "properties": { "year": 2023, "airport_name": "LOKPRIYA GOPINATH BORDOLOI INTL", "domestic_emission": 278432.2686, "international_emission": 3789.855927, "total_emission": 282222.1245 }, "geometry": { "type": "Point", "coordinates": [ 91.58589935, 26.10610008 ] } },
{ "type": "Feature", "properties": { "year": 2022, "airport_name": null, "domestic_emission": 73872.62249, "international_emission": 197676.9287, "total_emission": 271549.5512 }, "geometry": { "type": "Point", "coordinates": [ 76.920097, 8.48212 ] } },
{ "type": "Feature", "properties": { "year": 2024, "airport_name": "JAIPUR INTL", "domestic_emission": 173813.2234, "international_emission": 30985.17697, "total_emission": 204798.4004 }, "geometry": { "type": "Point", "coordinates": [ 75.812202, 26.8242 ] } },
{ "type": "Feature", "properties": { "year": 2023, "airport_name": "JAIPUR INTL", "domestic_emission": 195771.9684, "international_emission": 34933.41185, "total_emission": 230705.3803 }, "geometry": { "type": "Point", "coordinates": [ 75.812202, 26.8242 ] } },
{ "type": "Feature", "properties": { "year": 2024, "airport_name": "LOKPRIYA GOPINATH BORDOLOI INTL", "domestic_emission": 245976.1685, "international_emission": 5300.140968, "total_emission": 251276.3094 }, "geometry": { "type": "Point", "coordinates": [ 91.58589935, 26.10610008 ] } },
{ "type": "Feature", "properties": { "year": 2022, "airport_name": "LOKPRIYA GOPINATH BORDOLOI INTL", "domestic_emission": 280033.9031, "international_emission": 700.2037185, "total_emission": 280734.1068 }, "geometry": { "type": "Point", "coordinates": [ 91.58589935, 26.10610008 ] } },
{ "type": "Feature", "properties": { "year": 2024, "airport_name": null, "domestic_emission": 199524.3041, "international_emission": 46609.96528, "total_emission": 246134.2694 }, "geometry": { "type": "Point", "coordinates": [ 73.831398, 15.3808 ] } },
{ "type": "Feature", "properties": { "year": 2021, "airport_name": null, "domestic_emission": 263020.6843, "international_emission": 20652.96345, "total_emission": 283673.6478 }, "geometry": { "type": "Point", "coordinates": [ 73.831398, 15.3808 ] } },
{ "type": "Feature", "properties": { "year": 2024, "airport_name": null, "domestic_emission": 77490.22967, "international_emission": 134926.8327, "total_emission": 212417.0624 }, "geometry": { "type": "Point", "coordinates": [ 74.797302, 31.7096 ] } },
{ "type": "Feature", "properties": { "year": 2021, "airport_name": "LOKPRIYA GOPINATH BORDOLOI INTL", "domestic_emission": 261277.7042, "international_emission": 34.59437626, "total_emission": 261312.2986 }, "geometry": { "type": "Point", "coordinates": [ 91.58589935, 26.10610008 ] } },
{ "type": "Feature", "properties": { "year": 2022, "airport_name": "JAIPUR INTL", "domestic_emission": 195097.4341, "international_emission": 29794.95983, "total_emission": 224892.394 }, "geometry": { "type": "Point", "coordinates": [ 75.812202, 26.8242 ] } },
{ "type": "Feature", "properties": { "year": 2023, "airport_name": null, "domestic_emission": 86264.63065000001, "international_emission": 132206.2256, "total_emission": 218470.8562 }, "geometry": { "type": "Point", "coordinates": [ 74.797302, 31.7096 ] } },
{ "type": "Feature", "properties": { "year": 2021, "airport_name": "CHAUDHARY CHARAN SINGH INTL", "domestic_emission": 176130.7664, "international_emission": 64470.53753, "total_emission": 240601.304 }, "geometry": { "type": "Point", "coordinates": [ 80.88929749, 26.76059914 ] } },
{ "type": "Feature", "properties": { "year": 2023, "airport_name": "BIJU PATNAIK INTL", "domestic_emission": 193423.8671, "international_emission": 5813.018384, "total_emission": 199236.8855 }, "geometry": { "type": "Point", "coordinates": [ 85.81780243, 20.24440002 ] } },
{ "type": "Feature", "properties": { "year": 2024, "airport_name": "BIJU PATNAIK INTL", "domestic_emission": 168235.7653, "international_emission": 9204.678716, "total_emission": 177440.444 }, "geometry": { "type": "Point", "coordinates": [ 85.81780243, 20.24440002 ] } },
{ "type": "Feature", "properties": { "year": 2024, "airport_name": null, "domestic_emission": 132907.3433, "international_emission": 32969.43997, "total_emission": 165876.7833 }, "geometry": { "type": "Point", "coordinates": [ 73.860625, 15.744257 ] } },
{ "type": "Feature", "properties": { "year": 2023, "airport_name": "CHANDIGARH", "domestic_emission": 159237.0101, "international_emission": 11488.47289, "total_emission": 170725.483 }, "geometry": { "type": "Point", "coordinates": [ 76.788498, 30.6735 ] } },
{ "type": "Feature", "properties": { "year": 2021, "airport_name": null, "domestic_emission": 51478.49873, "international_emission": 124896.8996, "total_emission": 176375.3984 }, "geometry": { "type": "Point", "coordinates": [ 76.920097, 8.48212 ] } },
{ "type": "Feature", "properties": { "year": 2021, "airport_name": "JAI PRAKASH NARAYAN INTL PATNA", "domestic_emission": 237343.6753, "international_emission": 0.0, "total_emission": 237343.6753 }, "geometry": { "type": "Point", "coordinates": [ 85.087997, 25.591299 ] } },
{ "type": "Feature", "properties": { "year": 2022, "airport_name": "CHANDIGARH", "domestic_emission": 170597.4459, "international_emission": 9947.764989, "total_emission": 180545.2109 }, "geometry": { "type": "Point", "coordinates": [ 76.788498, 30.6735 ] } },
{ "type": "Feature", "properties": { "year": 2021, "airport_name": "PUNE", "domestic_emission": 210896.4683, "international_emission": 139.1845324, "total_emission": 211035.6528 }, "geometry": { "type": "Point", "coordinates": [ 73.919701, 18.5821 ] } },
{ "type": "Feature", "properties": { "year": 2022, "airport_name": "JAI PRAKASH NARAYAN INTL PATNA", "domestic_emission": 206043.4208, "international_emission": 0.0, "total_emission": 206043.4208 }, "geometry": { "type": "Point", "coordinates": [ 85.087997, 25.591299 ] } },
{ "type": "Feature", "properties": { "year": 2024, "airport_name": "TIRUCHIRAPPALLI INTL", "domestic_emission": 10799.617, "international_emission": 116191.0976, "total_emission": 126990.7146 }, "geometry": { "type": "Point", "coordinates": [ 78.71774, 10.766223 ] } },
{ "type": "Feature", "properties": { "year": 2022, "airport_name": null, "domestic_emission": 86807.83712, "international_emission": 82819.13656, "total_emission": 169626.9737 }, "geometry": { "type": "Point", "coordinates": [ 74.797302, 31.7096 ] } },
{ "type": "Feature", "properties": { "year": 2021, "airport_name": "JAIPUR INTL", "domestic_emission": 170945.497, "international_emission": 16193.34799, "total_emission": 187138.845 }, "geometry": { "type": "Point", "coordinates": [ 75.812202, 26.8242 ] } },
{ "type": "Feature", "properties": { "year": 2024, "airport_name": "CHANDIGARH", "domestic_emission": 135400.2533, "international_emission": 9799.13692, "total_emission": 145199.3902 }, "geometry": { "type": "Point", "coordinates": [ 76.788498, 30.6735 ] } },
{ "type": "Feature", "properties": { "year": 2022, "airport_name": "BIJU PATNAIK INTL", "domestic_emission": 171381.6552, "international_emission": 0.0, "total_emission": 171381.6552 }, "geometry": { "type": "Point", "coordinates": [ 85.81780243, 20.24440002 ] } },
{ "type": "Feature", "properties": { "year": 2023, "airport_name": "TIRUCHIRAPPALLI INTL", "domestic_emission": 9893.398276, "international_emission": 121502.5193, "total_emission": 131395.9176 }, "geometry": { "type": "Point", "coordinates": [ 78.71774, 10.766223 ] } },
{ "type": "Feature", "properties": { "year": 2024, "airport_name": "DEVI AHILYABAI HOLKAR", "domestic_emission": 96612.39721, "international_emission": 3283.412918, "total_emission": 99895.81013 }, "geometry": { "type": "Point", "coordinates": [ 75.80110168, 22.72179985 ] } },
{ "type": "Feature", "properties": { "year": 2023, "airport_name": null, "domestic_emission": 128577.9198, "international_emission": 16738.74446, "total_emission": 145316.6643 }, "geometry": { "type": "Point", "coordinates": [ 73.860625, 15.744257 ] } },
{ "type": "Feature", "properties": { "year": 2023, "airport_name": "JAI PRAKASH NARAYAN INTL PATNA", "domestic_emission": 156083.6299, "international_emission": 0.0, "total_emission": 156083.6299 }, "geometry": { "type": "Point", "coordinates": [ 85.087997, 25.591299 ] } },
{ "type": "Feature", "properties": { "year": 2023, "airport_name": "DEVI AHILYABAI HOLKAR", "domestic_emission": 107778.1404, "international_emission": 3229.465671, "total_emission": 111007.6061 }, "geometry": { "type": "Point", "coordinates": [ 75.80110168, 22.72179985 ] } },
{ "type": "Feature", "properties": { "year": 2024, "airport_name": "VARANASI", "domestic_emission": 113567.2798, "international_emission": 9991.57847, "total_emission": 123558.8583 }, "geometry": { "type": "Point", "coordinates": [ 82.861805, 25.452129 ] } },
{ "type": "Feature", "properties": { "year": 2023, "airport_name": null, "domestic_emission": 143139.2046, "international_emission": 2786.331052, "total_emission": 145925.5357 }, "geometry": { "type": "Point", "coordinates": [ 88.32859802, 26.68120003 ] } },
{ "type": "Feature", "properties": { "year": 2022, "airport_name": null, "domestic_emission": 160099.4996, "international_emission": 2752.421618, "total_emission": 162851.9212 }, "geometry": { "type": "Point", "coordinates": [ 74.7742, 33.987099 ] } },
{ "type": "Feature", "properties": { "year": 2024, "airport_name": null, "domestic_emission": 138514.021, "international_emission": 2545.346928, "total_emission": 141059.3679 }, "geometry": { "type": "Point", "coordinates": [ 88.32859802, 26.68120003 ] } },
{ "type": "Feature", "properties": { "year": 2024, "airport_name": null, "domestic_emission": 121609.833, "international_emission": 1992.550188, "total_emission": 123602.3832 }, "geometry": { "type": "Point", "coordinates": [ 74.7742, 33.987099 ] } },
{ "type": "Feature", "properties": { "year": 2024, "airport_name": "JAI PRAKASH NARAYAN INTL PATNA", "domestic_emission": 132097.8343, "international_emission": 0.0, "total_emission": 132097.8343 }, "geometry": { "type": "Point", "coordinates": [ 85.087997, 25.591299 ] } },
{ "type": "Feature", "properties": { "year": 2023, "airport_name": null, "domestic_emission": 95725.26443, "international_emission": 13028.51712, "total_emission": 108753.7816 }, "geometry": { "type": "Point", "coordinates": [ 79.047203, 21.092199 ] } },
{ "type": "Feature", "properties": { "year": 2022, "airport_name": "TIRUCHIRAPPALLI INTL", "domestic_emission": 8371.809385, "international_emission": 110579.8287, "total_emission": 118951.6381 }, "geometry": { "type": "Point", "coordinates": [ 78.71774, 10.766223 ] } },
{ "type": "Feature", "properties": { "year": 2023, "airport_name": null, "domestic_emission": 122946.4646, "international_emission": 2101.442924, "total_emission": 125047.9075 }, "geometry": { "type": "Point", "coordinates": [ 74.7742, 33.987099 ] } },
{ "type": "Feature", "properties": { "year": 2021, "airport_name": "BIJU PATNAIK INTL", "domestic_emission": 142847.0691, "international_emission": 0.0, "total_emission": 142847.0691 }, "geometry": { "type": "Point", "coordinates": [ 85.81780243, 20.24440002 ] } },
{ "type": "Feature", "properties": { "year": 2021, "airport_name": "CHANDIGARH", "domestic_emission": 134100.5668, "international_emission": 1452.237415, "total_emission": 135552.8042 }, "geometry": { "type": "Point", "coordinates": [ 76.788498, 30.6735 ] } },
{ "type": "Feature", "properties": { "year": 2023, "airport_name": "RANCHI", "domestic_emission": 112107.1824, "international_emission": 0.0, "total_emission": 112107.1824 }, "geometry": { "type": "Point", "coordinates": [ 85.32170105, 23.31430054 ] } },
{ "type": "Feature", "properties": { "year": 2023, "airport_name": "VISAKHAPATNAM", "domestic_emission": 104326.2764, "international_emission": 7547.631298, "total_emission": 111873.9077 }, "geometry": { "type": "Point", "coordinates": [ 83.227729, 17.723506 ] } },
{ "type": "Feature", "properties": { "year": 2022, "airport_name": null, "domestic_emission": 132670.2324, "international_emission": 1168.513304, "total_emission": 133838.7457 }, "geometry": { "type": "Point", "coordinates": [ 88.32859802, 26.68120003 ] } },
{ "type": "Feature", "properties": { "year": 2024, "airport_name": "COIMBATORE INTL", "domestic_emission": 81644.38567, "international_emission": 19258.88975, "total_emission": 100903.2754 }, "geometry": { "type": "Point", "coordinates": [ 77.04340363, 11.02999973 ] } },
{ "type": "Feature", "properties": { "year": 2024, "airport_name": null, "domestic_emission": 72964.71895, "international_emission": 12983.27101, "total_emission": 85947.98995 }, "geometry": { "type": "Point", "coordinates": [ 79.047203, 21.092199 ] } },
{ "type": "Feature", "properties": { "year": 2021, "airport_name": null, "domestic_emission": 145495.7551, "international_emission": 33.00080618, "total_emission": 145528.7559 }, "geometry": { "type": "Point", "coordinates": [ 88.32859802, 26.68120003 ] } },
{ "type": "Feature", "properties": { "year": 2023, "airport_name": "COIMBATORE INTL", "domestic_emission": 90931.55321, "international_emission": 20809.70602, "total_emission": 111741.2592 }, "geometry": { "type": "Point", "coordinates": [ 77.04340363, 11.02999973 ] } },
{ "type": "Feature", "properties": { "year": 2024, "airport_name": "MANGALURU INTL", "domestic_emission": 40307.38436, "international_emission": 45233.77566, "total_emission": 85541.16002 }, "geometry": { "type": "Point", "coordinates": [ 74.89009857, 12.9612999 ] } },
{ "type": "Feature", "properties": { "year": 2022, "airport_name": "RANCHI", "domestic_emission": 128027.6013, "international_emission": 0.0, "total_emission": 128027.6013 }, "geometry": { "type": "Point", "coordinates": [ 85.32170105, 23.31430054 ] } },
{ "type": "Feature", "properties": { "year": 2022, "airport_name": "VISAKHAPATNAM", "domestic_emission": 106517.9134, "international_emission": 7564.593817, "total_emission": 114082.5072 }, "geometry": { "type": "Point", "coordinates": [ 83.227729, 17.723506 ] } },
{ "type": "Feature", "properties": { "year": 2021, "airport_name": null, "domestic_emission": 137299.0744, "international_emission": 884.9081753, "total_emission": 138183.9826 }, "geometry": { "type": "Point", "coordinates": [ 74.7742, 33.987099 ] } },
{ "type": "Feature", "properties": { "year": 2024, "airport_name": "VISAKHAPATNAM", "domestic_emission": 84469.64699, "international_emission": 8150.347992, "total_emission": 92619.99498 }, "geometry": { "type": "Point", "coordinates": [ 83.227729, 17.723506 ] } },
{ "type": "Feature", "properties": { "year": 2022, "airport_name": "DEVI AHILYABAI HOLKAR", "domestic_emission": 100901.4851, "international_emission": 1185.56742, "total_emission": 102087.0525 }, "geometry": { "type": "Point", "coordinates": [ 75.80110168, 22.72179985 ] } },
{ "type": "Feature", "properties": { "year": 2024, "airport_name": "RANCHI", "domestic_emission": 97550.1543, "international_emission": 0.0, "total_emission": 97550.1543 }, "geometry": { "type": "Point", "coordinates": [ 85.32170105, 23.31430054 ] } },
{ "type": "Feature", "properties": { "year": 2023, "airport_name": "MANGALURU INTL", "domestic_emission": 41540.82446, "international_emission": 50414.51778, "total_emission": 91955.34223 }, "geometry": { "type": "Point", "coordinates": [ 74.89009857, 12.9612999 ] } },
{ "type": "Feature", "properties": { "year": 2022, "airport_name": "MANGALURU INTL", "domestic_emission": 39653.21258, "international_emission": 55180.00471, "total_emission": 94833.21729 }, "geometry": { "type": "Point", "coordinates": [ 74.89009857, 12.9612999 ] } },
{ "type": "Feature", "properties": { "year": 2022, "airport_name": null, "domestic_emission": 95813.85236, "international_emission": 6769.23603, "total_emission": 102583.0884 }, "geometry": { "type": "Point", "coordinates": [ 79.047203, 21.092199 ] } },
{ "type": "Feature", "properties": { "year": 2022, "airport_name": "COIMBATORE INTL", "domestic_emission": 87204.27862, "international_emission": 18356.90539, "total_emission": 105561.184 }, "geometry": { "type": "Point", "coordinates": [ 77.04340363, 11.02999973 ] } },
{ "type": "Feature", "properties": { "year": 2021, "airport_name": null, "domestic_emission": 59695.79573, "international_emission": 36336.6519, "total_emission": 96032.44762000001 }, "geometry": { "type": "Point", "coordinates": [ 74.797302, 31.7096 ] } },
{ "type": "Feature", "properties": { "year": 2021, "airport_name": "RANCHI", "domestic_emission": 129778.8281, "international_emission": 0.0, "total_emission": 129778.8281 }, "geometry": { "type": "Point", "coordinates": [ 85.32170105, 23.31430054 ] } },
{ "type": "Feature", "properties": { "year": 2023, "airport_name": "VARANASI", "domestic_emission": 113522.6317, "international_emission": 11635.69443, "total_emission": 125158.3262 }, "geometry": { "type": "Point", "coordinates": [ 82.861805, 25.452129 ] } },
{ "type": "Feature", "properties": { "year": 2024, "airport_name": "Swami Vivekananda Airport", "domestic_emission": 73691.39779, "international_emission": 0.0, "total_emission": 73691.39779 }, "geometry": { "type": "Point", "coordinates": [ 81.7388, 21.180401 ] } },
{ "type": "Feature", "properties": { "year": 2024, "airport_name": "VIJAYAWADA", "domestic_emission": 28075.71408, "international_emission": 3482.211071, "total_emission": 31557.92516 }, "geometry": { "type": "Point", "coordinates": [ 80.796799, 16.530399 ] } },
{ "type": "Feature", "properties": { "year": 2024, "airport_name": "MADURAI", "domestic_emission": 28322.49723, "international_emission": 21171.8765, "total_emission": 49494.37373 }, "geometry": { "type": "Point", "coordinates": [ 78.09339905, 9.83450985 ] } },
{ "type": "Feature", "properties": { "year": 2023, "airport_name": "VIJAYAWADA", "domestic_emission": 28626.26254, "international_emission": 4369.396209, "total_emission": 32995.65875 }, "geometry": { "type": "Point", "coordinates": [ 80.796799, 16.530399 ] } },
{ "type": "Feature", "properties": { "year": 2021, "airport_name": "VISAKHAPATNAM", "domestic_emission": 86152.40781, "international_emission": 75.27445707, "total_emission": 86227.68227 }, "geometry": { "type": "Point", "coordinates": [ 83.227729, 17.723506 ] } },
{ "type": "Feature", "properties": { "year": 2023, "airport_name": "MADURAI", "domestic_emission": 32930.40708, "international_emission": 19723.52758, "total_emission": 52653.93466 }, "geometry": { "type": "Point", "coordinates": [ 78.09339905, 9.83450985 ] } },
{ "type": "Feature", "properties": { "year": 2021, "airport_name": null, "domestic_emission": 79372.96126, "international_emission": 743.2828824, "total_emission": 80116.24414 }, "geometry": { "type": "Point", "coordinates": [ 79.047203, 21.092199 ] } },
{ "type": "Feature", "properties": { "year": 2021, "airport_name": "DEVI AHILYABAI HOLKAR", "domestic_emission": 78043.32095, "international_emission": 412.8253807, "total_emission": 78456.14633 }, "geometry": { "type": "Point", "coordinates": [ 75.80110168, 22.72179985 ] } },
{ "type": "Feature", "properties": { "year": 2022, "airport_name": "VIJAYAWADA", "domestic_emission": 26057.33187, "international_emission": 6225.318233, "total_emission": 32282.6501 }, "geometry": { "type": "Point", "coordinates": [ 80.796799, 16.530399 ] } },
{ "type": "Feature", "properties": { "year": 2022, "airport_name": "MADURAI", "domestic_emission": 28674.20689, "international_emission": 16745.68246, "total_emission": 45419.88935 }, "geometry": { "type": "Point", "coordinates": [ 78.09339905, 9.83450985 ] } },
{ "type": "Feature", "properties": { "year": 2024, "airport_name": "SURAT", "domestic_emission": 49466.32369, "international_emission": 6882.143568, "total_emission": 56348.46726 }, "geometry": { "type": "Point", "coordinates": [ 72.7417984, 21.1140995 ] } },
{ "type": "Feature", "properties": { "year": 2021, "airport_name": "TIRUCHIRAPPALLI INTL", "domestic_emission": 5561.257343, "international_emission": 52036.7804, "total_emission": 57598.03775 }, "geometry": { "type": "Point", "coordinates": [ 78.71774, 10.766223 ] } },
{ "type": "Feature", "properties": { "year": 2021, "airport_name": "MANGALURU INTL", "domestic_emission": 33584.99, "international_emission": 29164.80334, "total_emission": 62749.79334 }, "geometry": { "type": "Point", "coordinates": [ 74.89009857, 12.9612999 ] } },
{ "type": "Feature", "properties": { "year": 2021, "airport_name": "COIMBATORE INTL", "domestic_emission": 62290.36193, "international_emission": 6680.166703, "total_emission": 68970.52864 }, "geometry": { "type": "Point", "coordinates": [ 77.04340363, 11.02999973 ] } },
{ "type": "Feature", "properties": { "year": 2024, "airport_name": "RAJA BHOJ", "domestic_emission": 39069.57101, "international_emission": 246.9547965, "total_emission": 39316.52581 }, "geometry": { "type": "Point", "coordinates": [ 77.33740234, 23.28750038 ] } },
{ "type": "Feature", "properties": { "year": 2023, "airport_name": null, "domestic_emission": 47387.23625, "international_emission": 0.0, "total_emission": 47387.23625 }, "geometry": { "type": "Point", "coordinates": [ 73.89610291, 24.61770058 ] } },
{ "type": "Feature", "properties": { "year": 2023, "airport_name": "SURAT", "domestic_emission": 51792.58367, "international_emission": 3842.672713, "total_emission": 55635.25638 }, "geometry": { "type": "Point", "coordinates": [ 72.7417984, 21.1140995 ] } },
{ "type": "Feature", "properties": { "year": 2022, "airport_name": "SURAT", "domestic_emission": 67282.50012, "international_emission": 2440.994717, "total_emission": 69723.49484 }, "geometry": { "type": "Point", "coordinates": [ 72.7417984, 21.1140995 ] } },
{ "type": "Feature", "properties": { "year": 2024, "airport_name": null, "domestic_emission": 42091.30776, "international_emission": 0.0, "total_emission": 42091.30776 }, "geometry": { "type": "Point", "coordinates": [ 73.89610291, 24.61770058 ] } },
{ "type": "Feature", "properties": { "year": 2023, "airport_name": "RAJA BHOJ", "domestic_emission": 41899.34608, "international_emission": 265.0138672, "total_emission": 42164.35994 }, "geometry": { "type": "Point", "coordinates": [ 77.33740234, 23.28750038 ] } },
{ "type": "Feature", "properties": { "year": 2021, "airport_name": "SURAT", "domestic_emission": 56732.25639, "international_emission": 742.4223564, "total_emission": 57474.67875 }, "geometry": { "type": "Point", "coordinates": [ 72.7417984, 21.1140995 ] } },
{ "type": "Feature", "properties": { "year": 2022, "airport_name": null, "domestic_emission": 58985.66377, "international_emission": 0.0, "total_emission": 58985.66377 }, "geometry": { "type": "Point", "coordinates": [ 74.838152, 32.688849 ] } },
{ "type": "Feature", "properties": { "year": 2023, "airport_name": null, "domestic_emission": 42582.82474, "international_emission": 0.0, "total_emission": 42582.82474 }, "geometry": { "type": "Point", "coordinates": [ 73.04889679, 26.25110054 ] } },
{ "type": "Feature", "properties": { "year": 2021, "airport_name": "VIJAYAWADA", "domestic_emission": 26564.39274, "international_emission": 8187.834192, "total_emission": 34752.22693 }, "geometry": { "type": "Point", "coordinates": [ 80.796799, 16.530399 ] } },
{ "type": "Feature", "properties": { "year": 2022, "airport_name": null, "domestic_emission": 39764.77146, "international_emission": 0.0, "total_emission": 39764.77146 }, "geometry": { "type": "Point", "coordinates": [ 91.240402, 23.886999 ] } },
{ "type": "Feature", "properties": { "year": 2023, "airport_name": "IMPHAL", "domestic_emission": 36121.81575, "international_emission": 0.0, "total_emission": 36121.81575 }, "geometry": { "type": "Point", "coordinates": [ 93.896698, 24.76000023 ] } },
{ "type": "Feature", "properties": { "year": 2023, "airport_name": null, "domestic_emission": 38213.36587, "international_emission": 0.0, "total_emission": 38213.36587 }, "geometry": { "type": "Point", "coordinates": [ 91.240402, 23.886999 ] } },
{ "type": "Feature", "properties": { "year": 2022, "airport_name": "RAJA BHOJ", "domestic_emission": 40692.91852, "international_emission": 0.0, "total_emission": 40692.91852 }, "geometry": { "type": "Point", "coordinates": [ 77.33740234, 23.28750038 ] } },
{ "type": "Feature", "properties": { "year": 2021, "airport_name": null, "domestic_emission": 54157.84909, "international_emission": 0.0, "total_emission": 54157.84909 }, "geometry": { "type": "Point", "coordinates": [ 74.838152, 32.688849 ] } },
{ "type": "Feature", "properties": { "year": 2023, "airport_name": null, "domestic_emission": 43989.74163, "international_emission": 0.0, "total_emission": 43989.74163 }, "geometry": { "type": "Point", "coordinates": [ 74.838152, 32.688849 ] } },
{ "type": "Feature", "properties": { "year": 2021, "airport_name": "MADURAI", "domestic_emission": 27432.36935, "international_emission": 8121.770229, "total_emission": 35554.13958 }, "geometry": { "type": "Point", "coordinates": [ 78.09339905, 9.83450985 ] } },
{ "type": "Feature", "properties": { "year": 2024, "airport_name": "IMPHAL", "domestic_emission": 32273.55237, "international_emission": 0.0, "total_emission": 32273.55237 }, "geometry": { "type": "Point", "coordinates": [ 93.896698, 24.76000023 ] } },
{ "type": "Feature", "properties": { "year": 2022, "airport_name": "IMPHAL", "domestic_emission": 37840.59551, "international_emission": 0.0, "total_emission": 37840.59551 }, "geometry": { "type": "Point", "coordinates": [ 93.896698, 24.76000023 ] } },
{ "type": "Feature", "properties": { "year": 2023, "airport_name": "VADODARA", "domestic_emission": 39608.23096, "international_emission": 0.0, "total_emission": 39608.23096 }, "geometry": { "type": "Point", "coordinates": [ 73.226303, 22.336201 ] } },
{ "type": "Feature", "properties": { "year": 2022, "airport_name": null, "domestic_emission": 42824.73547, "international_emission": 0.0, "total_emission": 42824.73547 }, "geometry": { "type": "Point", "coordinates": [ 73.89610291, 24.61770058 ] } },
{ "type": "Feature", "properties": { "year": 2024, "airport_name": null, "domestic_emission": 32805.42698, "international_emission": 0.0, "total_emission": 32805.42698 }, "geometry": { "type": "Point", "coordinates": [ 91.240402, 23.886999 ] } },
{ "type": "Feature", "properties": { "year": 2024, "airport_name": null, "domestic_emission": 36038.90295, "international_emission": 0.0, "total_emission": 36038.90295 }, "geometry": { "type": "Point", "coordinates": [ 74.838152, 32.688849 ] } },
{ "type": "Feature", "properties": { "year": 2023, "airport_name": null, "domestic_emission": 24753.33347, "international_emission": 0.0, "total_emission": 24753.33347 }, "geometry": { "type": "Point", "coordinates": [ 81.733902, 25.4401 ] } },
{ "type": "Feature", "properties": { "year": 2024, "airport_name": null, "domestic_emission": 33416.73467, "international_emission": 0.0, "total_emission": 33416.73467 }, "geometry": { "type": "Point", "coordinates": [ 73.04889679, 26.25110054 ] } },
{ "type": "Feature", "properties": { "year": 2022, "airport_name": null, "domestic_emission": 39690.1055, "international_emission": 0.0, "total_emission": 39690.1055 }, "geometry": { "type": "Point", "coordinates": [ 73.04889679, 26.25110054 ] } },
{ "type": "Feature", "properties": { "year": 2024, "airport_name": "VADODARA", "domestic_emission": 36524.82859, "international_emission": 0.0, "total_emission": 36524.82859 }, "geometry": { "type": "Point", "coordinates": [ 73.226303, 22.336201 ] } },
{ "type": "Feature", "properties": { "year": 2021, "airport_name": "RAJA BHOJ", "domestic_emission": 36280.63645, "international_emission": 0.0, "total_emission": 36280.63645 }, "geometry": { "type": "Point", "coordinates": [ 77.33740234, 23.28750038 ] } },
{ "type": "Feature", "properties": { "year": 2021, "airport_name": null, "domestic_emission": 35372.79021, "international_emission": 0.0, "total_emission": 35372.79021 }, "geometry": { "type": "Point", "coordinates": [ 91.240402, 23.886999 ] } },
{ "type": "Feature", "properties": { "year": 2022, "airport_name": "VADODARA", "domestic_emission": 38210.45677, "international_emission": 0.0, "total_emission": 38210.45677 }, "geometry": { "type": "Point", "coordinates": [ 73.226303, 22.336201 ] } },
{ "type": "Feature", "properties": { "year": 2021, "airport_name": "IMPHAL", "domestic_emission": 32106.46257, "international_emission": 0.0, "total_emission": 32106.46257 }, "geometry": { "type": "Point", "coordinates": [ 93.896698, 24.76000023 ] } },
{ "type": "Feature", "properties": { "year": 2021, "airport_name": null, "domestic_emission": 35049.11041, "international_emission": 0.0, "total_emission": 35049.11041 }, "geometry": { "type": "Point", "coordinates": [ 73.04889679, 26.25110054 ] } },
{ "type": "Feature", "properties": { "year": 2021, "airport_name": null, "domestic_emission": 35520.39556, "international_emission": 0.0, "total_emission": 35520.39556 }, "geometry": { "type": "Point", "coordinates": [ 73.89610291, 24.61770058 ] } },
{ "type": "Feature", "properties": { "year": 2024, "airport_name": null, "domestic_emission": 5923.678164, "international_emission": 0.0, "total_emission": 5923.678164 }, "geometry": { "type": "Point", "coordinates": [ 70.77950287, 22.30920029 ] } },
{ "type": "Feature", "properties": { "year": 2024, "airport_name": null, "domestic_emission": 19589.68806, "international_emission": 0.0, "total_emission": 19589.68806 }, "geometry": { "type": "Point", "coordinates": [ 81.733902, 25.4401 ] } },
{ "type": "Feature", "properties": { "year": 2024, "airport_name": null, "domestic_emission": 18079.38094, "international_emission": 188.7292843, "total_emission": 18268.11023 }, "geometry": { "type": "Point", "coordinates": [ 75.39810181, 19.86269951 ] } },
{ "type": "Feature", "properties": { "year": 2023, "airport_name": null, "domestic_emission": 29573.84067, "international_emission": 0.0, "total_emission": 29573.84067 }, "geometry": { "type": "Point", "coordinates": [ 87.243, 23.6225 ] } },
{ "type": "Feature", "properties": { "year": 2022, "airport_name": null, "domestic_emission": 18216.42562, "international_emission": 0.0, "total_emission": 18216.42562 }, "geometry": { "type": "Point", "coordinates": [ 80.052002, 23.177799 ] } },
{ "type": "Feature", "properties": { "year": 2023, "airport_name": "HUBBALLI", "domestic_emission": 12261.76654, "international_emission": 0.0, "total_emission": 12261.76654 }, "geometry": { "type": "Point", "coordinates": [ 75.0848999, 15.36170006 ] } },
{ "type": "Feature", "properties": { "year": 2021, "airport_name": "HUBBALLI", "domestic_emission": 8283.889667, "international_emission": 0.0, "total_emission": 8283.889667 }, "geometry": { "type": "Point", "coordinates": [ 75.0848999, 15.36170006 ] } },
{ "type": "Feature", "properties": { "year": 2023, "airport_name": null, "domestic_emission": 19140.35679, "international_emission": 206.1550433, "total_emission": 19346.51183 }, "geometry": { "type": "Point", "coordinates": [ 75.39810181, 19.86269951 ] } },
{ "type": "Feature", "properties": { "year": 2022, "airport_name": null, "domestic_emission": 29162.22669, "international_emission": 0.0, "total_emission": 29162.22669 }, "geometry": { "type": "Point", "coordinates": [ 87.243, 23.6225 ] } },
{ "type": "Feature", "properties": { "year": 2024, "airport_name": null, "domestic_emission": 5764.221528, "international_emission": 0.0, "total_emission": 5764.221528 }, "geometry": { "type": "Point", "coordinates": [ 73.912903, 20.119101 ] } },
{ "type": "Feature", "properties": { "year": 2022, "airport_name": "HUBBALLI", "domestic_emission": 7916.236864, "international_emission": 0.0, "total_emission": 7916.236864 }, "geometry": { "type": "Point", "coordinates": [ 75.0848999, 15.36170006 ] } },
{ "type": "Feature", "properties": { "year": 2024, "airport_name": null, "domestic_emission": 23304.22704, "international_emission": 0.0, "total_emission": 23304.22704 }, "geometry": { "type": "Point", "coordinates": [ 87.243, 23.6225 ] } },
{ "type": "Feature", "properties": { "year": 2023, "airport_name": null, "domestic_emission": 11240.32202, "international_emission": 0.0, "total_emission": 11240.32202 }, "geometry": { "type": "Point", "coordinates": [ 80.052002, 23.177799 ] } },
{ "type": "Feature", "properties": { "year": 2021, "airport_name": "VADODARA", "domestic_emission": 24622.27869, "international_emission": 0.0, "total_emission": 24622.27869 }, "geometry": { "type": "Point", "coordinates": [ 73.226303, 22.336201 ] } },
{ "type": "Feature", "properties": { "year": 2022, "airport_name": "MYSURU", "domestic_emission": 5685.631907, "international_emission": 0.0, "total_emission": 5685.631907 }, "geometry": { "type": "Point", "coordinates": [ 76.655833, 12.23 ] } },
{ "type": "Feature", "properties": { "year": 2024, "airport_name": "HUBBALLI", "domestic_emission": 9973.573871000001, "international_emission": 0.0, "total_emission": 9973.573871000001 }, "geometry": { "type": "Point", "coordinates": [ 75.0848999, 15.36170006 ] } },
{ "type": "Feature", "properties": { "year": 2022, "airport_name": "DIMAPUR", "domestic_emission": 12538.63782, "international_emission": 0.0, "total_emission": 12538.63782 }, "geometry": { "type": "Point", "coordinates": [ 93.77110291, 25.88389969 ] } },
{ "type": "Feature", "properties": { "year": 2024, "airport_name": null, "domestic_emission": 8454.031984, "international_emission": 0.0, "total_emission": 8454.031984 }, "geometry": { "type": "Point", "coordinates": [ 80.052002, 23.177799 ] } },
{ "type": "Feature", "properties": { "year": 2024, "airport_name": null, "domestic_emission": 4528.662476, "international_emission": 0.0, "total_emission": 4528.662476 }, "geometry": { "type": "Point", "coordinates": [ 78.025803, 8.724241 ] } },
{ "type": "Feature", "properties": { "year": 2023, "airport_name": null, "domestic_emission": 6117.014857, "international_emission": 0.0, "total_emission": 6117.014857 }, "geometry": { "type": "Point", "coordinates": [ 73.912903, 20.119101 ] } },
{ "type": "Feature", "properties": { "year": 2022, "airport_name": null, "domestic_emission": 15328.81461, "international_emission": 0.0, "total_emission": 15328.81461 }, "geometry": { "type": "Point", "coordinates": [ 75.39810181, 19.86269951 ] } },
{ "type": "Feature", "properties": { "year": 2022, "airport_name": null, "domestic_emission": 4962.853697, "international_emission": 0.0, "total_emission": 4962.853697 }, "geometry": { "type": "Point", "coordinates": [ 78.025803, 8.724241 ] } },
{ "type": "Feature", "properties": { "year": 2023, "airport_name": null, "domestic_emission": 4783.538045, "international_emission": 0.0, "total_emission": 4783.538045 }, "geometry": { "type": "Point", "coordinates": [ 78.025803, 8.724241 ] } },
{ "type": "Feature", "properties": { "year": 2021, "airport_name": "MYSURU", "domestic_emission": 5546.933184, "international_emission": 0.0, "total_emission": 5546.933184 }, "geometry": { "type": "Point", "coordinates": [ 76.655833, 12.23 ] } },
{ "type": "Feature", "properties": { "year": 2021, "airport_name": null, "domestic_emission": 12982.14131, "international_emission": 0.0, "total_emission": 12982.14131 }, "geometry": { "type": "Point", "coordinates": [ 80.052002, 23.177799 ] } },
{ "type": "Feature", "properties": { "year": 2023, "airport_name": null, "domestic_emission": 6792.489905, "international_emission": 7724.307046, "total_emission": 14516.79695 }, "geometry": { "type": "Point", "coordinates": [ 84.951202, 24.744301 ] } },
{ "type": "Feature", "properties": { "year": 2024, "airport_name": "AIZWAL", "domestic_emission": 10104.85044, "international_emission": 0.0, "total_emission": 10104.85044 }, "geometry": { "type": "Point", "coordinates": [ 92.619698, 23.840599 ] } },
{ "type": "Feature", "properties": { "year": 2023, "airport_name": null, "domestic_emission": 9873.171246, "international_emission": 0.0, "total_emission": 9873.171246 }, "geometry": { "type": "Point", "coordinates": [ 92.97869873, 24.91290092 ] } },
{ "type": "Feature", "properties": { "year": 2023, "airport_name": "DIMAPUR", "domestic_emission": 11846.65655, "international_emission": 0.0, "total_emission": 11846.65655 }, "geometry": { "type": "Point", "coordinates": [ 93.77110291, 25.88389969 ] } },
{ "type": "Feature", "properties": { "year": 2023, "airport_name": "MYSURU", "domestic_emission": 4342.720566, "international_emission": 0.0, "total_emission": 4342.720566 }, "geometry": { "type": "Point", "coordinates": [ 76.655833, 12.23 ] } },
{ "type": "Feature", "properties": { "year": 2021, "airport_name": null, "domestic_emission": 21484.35304, "international_emission": 0.0, "total_emission": 21484.35304 }, "geometry": { "type": "Point", "coordinates": [ 87.243, 23.6225 ] } },
{ "type": "Feature", "properties": { "year": 2023, "airport_name": null, "domestic_emission": 4917.484457, "international_emission": 0.0, "total_emission": 4917.484457 }, "geometry": { "type": "Point", "coordinates": [ 74.289398, 16.6647 ] } },
{ "type": "Feature", "properties": { "year": 2023, "airport_name": "AIZWAL", "domestic_emission": 9808.314152000001, "international_emission": 0.0, "total_emission": 9808.314152000001 }, "geometry": { "type": "Point", "coordinates": [ 92.619698, 23.840599 ] } },
{ "type": "Feature", "properties": { "year": 2024, "airport_name": null, "domestic_emission": 13356.04806, "international_emission": 0.0, "total_emission": 13356.04806 }, "geometry": { "type": "Point", "coordinates": [ 78.22779846, 26.29330063 ] } },
{ "type": "Feature", "properties": { "year": 2021, "airport_name": null, "domestic_emission": 13484.08387, "international_emission": 0.0, "total_emission": 13484.08387 }, "geometry": { "type": "Point", "coordinates": [ 75.39810181, 19.86269951 ] } },
{ "type": "Feature", "properties": { "year": 2023, "airport_name": "BARAPANI or Umroi Aiport", "domestic_emission": 4063.697599, "international_emission": 0.0, "total_emission": 4063.697599 }, "geometry": { "type": "Point", "coordinates": [ 91.97869873, 25.70359993 ] } },
{ "type": "Feature", "properties": { "year": 2021, "airport_name": null, "domestic_emission": 3846.943122, "international_emission": 0.0, "total_emission": 3846.943122 }, "geometry": { "type": "Point", "coordinates": [ 78.025803, 8.724241 ] } },
{ "type": "Feature", "properties": { "year": 2024, "airport_name": null, "domestic_emission": 8855.102189, "international_emission": 0.0, "total_emission": 8855.102189 }, "geometry": { "type": "Point", "coordinates": [ 92.97869873, 24.91290092 ] } },
{ "type": "Feature", "properties": { "year": 2021, "airport_name": "DIMAPUR", "domestic_emission": 9807.331976, "international_emission": 0.0, "total_emission": 9807.331976 }, "geometry": { "type": "Point", "coordinates": [ 93.77110291, 25.88389969 ] } },
{ "type": "Feature", "properties": { "year": 2022, "airport_name": null, "domestic_emission": 12495.02149, "international_emission": 0.0, "total_emission": 12495.02149 }, "geometry": { "type": "Point", "coordinates": [ 92.97869873, 24.91290092 ] } },
{ "type": "Feature", "properties": { "year": 2022, "airport_name": null, "domestic_emission": 11222.41009, "international_emission": 0.0, "total_emission": 11222.41009 }, "geometry": { "type": "Point", "coordinates": [ 78.22779846, 26.29330063 ] } },
{ "type": "Feature", "properties": { "year": 2022, "airport_name": null, "domestic_emission": 4299.63576, "international_emission": 0.0, "total_emission": 4299.63576 }, "geometry": { "type": "Point", "coordinates": [ 74.289398, 16.6647 ] } },
{ "type": "Feature", "properties": { "year": 2024, "airport_name": null, "domestic_emission": 5829.63594, "international_emission": 6254.356922, "total_emission": 12083.99286 }, "geometry": { "type": "Point", "coordinates": [ 84.951202, 24.744301 ] } },
{ "type": "Feature", "properties": { "year": 2023, "airport_name": null, "domestic_emission": 11792.54601, "international_emission": 0.0, "total_emission": 11792.54601 }, "geometry": { "type": "Point", "coordinates": [ 78.22779846, 26.29330063 ] } },
{ "type": "Feature", "properties": { "year": 2021, "airport_name": null, "domestic_emission": 14264.02275, "international_emission": 0.0, "total_emission": 14264.02275 }, "geometry": { "type": "Point", "coordinates": [ 92.97869873, 24.91290092 ] } },
{ "type": "Feature", "properties": { "year": 2023, "airport_name": "KANPUR", "domestic_emission": 13397.10584, "international_emission": 0.0, "total_emission": 13397.10584 }, "geometry": { "type": "Point", "coordinates": [ 80.410103, 26.404301 ] } },
{ "type": "Feature", "properties": { "year": 2024, "airport_name": "DIMAPUR", "domestic_emission": 10216.65381, "international_emission": 0.0, "total_emission": 10216.65381 }, "geometry": { "type": "Point", "coordinates": [ 93.77110291, 25.88389969 ] } },
{ "type": "Feature", "properties": { "year": 2022, "airport_name": "BARAPANI or Umroi Aiport", "domestic_emission": 2708.362578, "international_emission": 0.0, "total_emission": 2708.362578 }, "geometry": { "type": "Point", "coordinates": [ 91.97869873, 25.70359993 ] } },
{ "type": "Feature", "properties": { "year": 2023, "airport_name": null, "domestic_emission": 7384.138091, "international_emission": 0.0, "total_emission": 7384.138091 }, "geometry": { "type": "Point", "coordinates": [ 77.960942, 27.157683 ] } },
{ "type": "Feature", "properties": { "year": 2024, "airport_name": "BARAPANI or Umroi Aiport", "domestic_emission": 4124.92116, "international_emission": 0.0, "total_emission": 4124.92116 }, "geometry": { "type": "Point", "coordinates": [ 91.97869873, 25.70359993 ] } },
{ "type": "Feature", "properties": { "year": 2021, "airport_name": null, "domestic_emission": 10769.81072, "international_emission": 0.0, "total_emission": 10769.81072 }, "geometry": { "type": "Point", "coordinates": [ 78.22779846, 26.29330063 ] } },
{ "type": "Feature", "properties": { "year": 2021, "airport_name": null, "domestic_emission": 3282.161253, "international_emission": 0.0, "total_emission": 3282.161253 }, "geometry": { "type": "Point", "coordinates": [ 74.289398, 16.6647 ] } },
{ "type": "Feature", "properties": { "year": 2022, "airport_name": "AIZWAL", "domestic_emission": 13744.12433, "international_emission": 0.0, "total_emission": 13744.12433 }, "geometry": { "type": "Point", "coordinates": [ 92.619698, 23.840599 ] } },
{ "type": "Feature", "properties": { "year": 2022, "airport_name": "KANPUR", "domestic_emission": 14744.88177, "international_emission": 0.0, "total_emission": 14744.88177 }, "geometry": { "type": "Point", "coordinates": [ 80.410103, 26.404301 ] } },
{ "type": "Feature", "properties": { "year": 2024, "airport_name": null, "domestic_emission": 6545.046403, "international_emission": 0.0, "total_emission": 6545.046403 }, "geometry": { "type": "Point", "coordinates": [ 77.960942, 27.157683 ] } },
{ "type": "Feature", "properties": { "year": 2023, "airport_name": null, "domestic_emission": 19714.25652, "international_emission": 0.0, "total_emission": 19714.25652 }, "geometry": { "type": "Point", "coordinates": [ 70.77950287, 22.30920029 ] } },
{ "type": "Feature", "properties": { "year": 2024, "airport_name": null, "domestic_emission": 4567.199298, "international_emission": 0.0, "total_emission": 4567.199298 }, "geometry": { "type": "Point", "coordinates": [ 74.289398, 16.6647 ] } },
{ "type": "Feature", "properties": { "year": 2022, "airport_name": null, "domestic_emission": 6631.229018, "international_emission": 0.0, "total_emission": 6631.229018 }, "geometry": { "type": "Point", "coordinates": [ 77.960942, 27.157683 ] } },
{ "type": "Feature", "properties": { "year": 2024, "airport_name": "KANPUR", "domestic_emission": 9892.140276, "international_emission": 0.0, "total_emission": 9892.140276 }, "geometry": { "type": "Point", "coordinates": [ 80.410103, 26.404301 ] } },
{ "type": "Feature", "properties": { "year": 2022, "airport_name": null, "domestic_emission": 8343.498545, "international_emission": 0.0, "total_emission": 8343.498545 }, "geometry": { "type": "Point", "coordinates": [ 79.45079803, 28.42210007 ] } },
{ "type": "Feature", "properties": { "year": 2021, "airport_name": null, "domestic_emission": 5264.258581, "international_emission": 0.0, "total_emission": 5264.258581 }, "geometry": { "type": "Point", "coordinates": [ 73.912903, 20.119101 ] } },
{ "type": "Feature", "properties": { "year": 2022, "airport_name": null, "domestic_emission": 5476.045758, "international_emission": 2889.930952, "total_emission": 8365.97671 }, "geometry": { "type": "Point", "coordinates": [ 84.951202, 24.744301 ] } },
{ "type": "Feature", "properties": { "year": 2023, "airport_name": null, "domestic_emission": 6323.100553, "international_emission": 0.0, "total_emission": 6323.100553 }, "geometry": { "type": "Point", "coordinates": [ 79.45079803, 28.42210007 ] } },
{ "type": "Feature", "properties": { "year": 2024, "airport_name": "MYSURU", "domestic_emission": 2989.026207, "international_emission": 0.0, "total_emission": 2989.026207 }, "geometry": { "type": "Point", "coordinates": [ 76.655833, 12.23 ] } },
{ "type": "Feature", "properties": { "year": 2021, "airport_name": "KANPUR", "domestic_emission": 9700.241968, "international_emission": 0.0, "total_emission": 9700.241968 }, "geometry": { "type": "Point", "coordinates": [ 80.410103, 26.404301 ] } },
{ "type": "Feature", "properties": { "year": 2024, "airport_name": null, "domestic_emission": null, "international_emission": null, "total_emission": null }, "geometry": { "type": "Point", "coordinates": [ 75.627492, 20.962678 ] } },
{ "type": "Feature", "properties": { "year": 2022, "airport_name": null, "domestic_emission": 4070.789834, "international_emission": 0.0, "total_emission": 4070.789834 }, "geometry": { "type": "Point", "coordinates": [ 73.912903, 20.119101 ] } },
{ "type": "Feature", "properties": { "year": 2024, "airport_name": null, "domestic_emission": 5833.75188, "international_emission": 0.0, "total_emission": 5833.75188 }, "geometry": { "type": "Point", "coordinates": [ 93.638792, 26.96683 ] } },
{ "type": "Feature", "properties": { "year": 2022, "airport_name": null, "domestic_emission": 1803.347725, "international_emission": 0.0, "total_emission": 1803.347725 }, "geometry": { "type": "Point", "coordinates": [ 78.16923, 15.716288 ] } },
{ "type": "Feature", "properties": { "year": 2024, "airport_name": null, "domestic_emission": null, "international_emission": null, "total_emission": null }, "geometry": { "type": "Point", "coordinates": [ 75.6171, 13.8573 ] } },
{ "type": "Feature", "properties": { "year": 2023, "airport_name": null, "domestic_emission": 1633.378541, "international_emission": 0.0, "total_emission": 1633.378541 }, "geometry": { "type": "Point", "coordinates": [ 78.16923, 15.716288 ] } },
{ "type": "Feature", "properties": { "year": 2021, "airport_name": "BARAPANI or Umroi Aiport", "domestic_emission": 1698.178572, "international_emission": 0.0, "total_emission": 1698.178572 }, "geometry": { "type": "Point", "coordinates": [ 91.97869873, 25.70359993 ] } },
{ "type": "Feature", "properties": { "year": 2024, "airport_name": null, "domestic_emission": 5429.666222, "international_emission": 0.0, "total_emission": 5429.666222 }, "geometry": { "type": "Point", "coordinates": [ 79.45079803, 28.42210007 ] } },
{ "type": "Feature", "properties": { "year": 2021, "airport_name": null, "domestic_emission": 4067.787268, "international_emission": 0.0, "total_emission": 4067.787268 }, "geometry": { "type": "Point", "coordinates": [ 77.960942, 27.157683 ] } },
{ "type": "Feature", "properties": { "year": 2021, "airport_name": "AIZWAL", "domestic_emission": 6460.660578, "international_emission": 0.0, "total_emission": 6460.660578 }, "geometry": { "type": "Point", "coordinates": [ 92.619698, 23.840599 ] } },
{ "type": "Feature", "properties": { "year": 2021, "airport_name": null, "domestic_emission": 1341.490157, "international_emission": 0.0, "total_emission": 1341.490157 }, "geometry": { "type": "Point", "coordinates": [ 78.16923, 15.716288 ] } },
{ "type": "Feature", "properties": { "year": 2021, "airport_name": null, "domestic_emission": 3756.64987, "international_emission": 0.0, "total_emission": 3756.64987 }, "geometry": { "type": "Point", "coordinates": [ 79.45079803, 28.42210007 ] } },
{ "type": "Feature", "properties": { "year": 2023, "airport_name": null, "domestic_emission": 708.0745849, "international_emission": 0.0, "total_emission": 708.0745849 }, "geometry": { "type": "Point", "coordinates": [ 77.068001, 31.0818 ] } },
{ "type": "Feature", "properties": { "year": 2024, "airport_name": null, "domestic_emission": 1283.232536, "international_emission": 0.0, "total_emission": 1283.232536 }, "geometry": { "type": "Point", "coordinates": [ 77.068001, 31.0818 ] } },
{ "type": "Feature", "properties": { "year": 2024, "airport_name": null, "domestic_emission": 1285.145781, "international_emission": 0.0, "total_emission": 1285.145781 }, "geometry": { "type": "Point", "coordinates": [ 78.16923, 15.716288 ] } },
{ "type": "Feature", "properties": { "year": 2023, "airport_name": null, "domestic_emission": 4734.253591, "international_emission": 0.0, "total_emission": 4734.253591 }, "geometry": { "type": "Point", "coordinates": [ 93.638792, 26.96683 ] } },
{ "type": "Feature", "properties": { "year": 2021, "airport_name": null, "domestic_emission": 4586.021203, "international_emission": 1438.676414, "total_emission": 6024.697618 }, "geometry": { "type": "Point", "coordinates": [ 84.951202, 24.744301 ] } },
{ "type": "Feature", "properties": { "year": 2024, "airport_name": "ROURKELA", "domestic_emission": 728.8162364, "international_emission": 0.0, "total_emission": 728.8162364 }, "geometry": { "type": "Point", "coordinates": [ 84.815193, 22.256571 ] } },
{ "type": "Feature", "properties": { "year": 2023, "airport_name": "ROURKELA", "domestic_emission": 428.7131788, "international_emission": 0.0, "total_emission": 428.7131788 }, "geometry": { "type": "Point", "coordinates": [ 84.815193, 22.256571 ] } },
{ "type": "Feature", "properties": { "year": 2024, "airport_name": null, "domestic_emission": 358.2482984, "international_emission": 0.0, "total_emission": 358.2482984 }, "geometry": { "type": "Point", "coordinates": [ 86.169739, 22.813786 ] } },
{ "type": "Feature", "properties": { "year": 2022, "airport_name": null, "domestic_emission": 24210.41473, "international_emission": 0.0, "total_emission": 24210.41473 }, "geometry": { "type": "Point", "coordinates": [ 81.733902, 25.4401 ] } },
{ "type": "Feature", "properties": { "year": 2023, "airport_name": null, "domestic_emission": 251.7344312, "international_emission": 0.0, "total_emission": 251.7344312 }, "geometry": { "type": "Point", "coordinates": [ 86.169739, 22.813786 ] } },
{ "type": "Feature", "properties": { "year": 2021, "airport_name": "PAKYONG", "domestic_emission": 2999.139227, "international_emission": 0.0, "total_emission": 2999.139227 }, "geometry": { "type": "Point", "coordinates": [ 88.587196, 27.2313 ] } },
{ "type": "Feature", "properties": { "year": 2022, "airport_name": "PAKYONG", "domestic_emission": 2774.050954, "international_emission": 0.0, "total_emission": 2774.050954 }, "geometry": { "type": "Point", "coordinates": [ 88.587196, 27.2313 ] } },
{ "type": "Feature", "properties": { "year": 2023, "airport_name": null, "domestic_emission": null, "international_emission": null, "total_emission": null }, "geometry": { "type": "Point", "coordinates": [ 75.6171, 13.8573 ] } },
{ "type": "Feature", "properties": { "year": 2021, "airport_name": null, "domestic_emission": null, "international_emission": null, "total_emission": null }, "geometry": { "type": "Point", "coordinates": [ 75.627492, 20.962678 ] } },
{ "type": "Feature", "properties": { "year": 2024, "airport_name": null, "domestic_emission": 0.0, "international_emission": 0.0, "total_emission": 0.0 }, "geometry": { "type": "Point", "coordinates": [ 75.758797, 31.4338 ] } },
{ "type": "Feature", "properties": { "year": 2021, "airport_name": null, "domestic_emission": 25826.86577, "international_emission": 0.0, "total_emission": 25826.86577 }, "geometry": { "type": "Point", "coordinates": [ 81.733902, 25.4401 ] } },
{ "type": "Feature", "properties": { "year": 2022, "airport_name": null, "domestic_emission": 0.0, "international_emission": 0.0, "total_emission": 0.0 }, "geometry": { "type": "Point", "coordinates": [ 77.068001, 31.0818 ] } },
{ "type": "Feature", "properties": { "year": 2024, "airport_name": "HYDERABAD Airport", "domestic_emission": 0.0, "international_emission": 0.0, "total_emission": 0.0 }, "geometry": { "type": "Point", "coordinates": [ 78.467598, 17.4531 ] } },
{ "type": "Feature", "properties": { "year": 2023, "airport_name": "PAKYONG", "domestic_emission": 706.0931688, "international_emission": 0.0, "total_emission": 706.0931688 }, "geometry": { "type": "Point", "coordinates": [ 88.587196, 27.2313 ] } },
{ "type": "Feature", "properties": { "year": 2024, "airport_name": "PAKYONG", "domestic_emission": 885.9466816, "international_emission": 0.0, "total_emission": 885.9466816 }, "geometry": { "type": "Point", "coordinates": [ 88.587196, 27.2313 ] } },
{ "type": "Feature", "properties": { "year": 2021, "airport_name": null, "domestic_emission": 810.9406447, "international_emission": 0.0, "total_emission": 810.9406447 }, "geometry": { "type": "Point", "coordinates": [ 75.758797, 31.4338 ] } },
{ "type": "Feature", "properties": { "year": 2022, "airport_name": null, "domestic_emission": null, "international_emission": null, "total_emission": null }, "geometry": { "type": "Point", "coordinates": [ 75.627492, 20.962678 ] } },
{ "type": "Feature", "properties": { "year": 2021, "airport_name": "HYDERABAD Airport", "domestic_emission": 440.6063966, "international_emission": 0.0, "total_emission": 440.6063966 }, "geometry": { "type": "Point", "coordinates": [ 78.467598, 17.4531 ] } },
{ "type": "Feature", "properties": { "year": 2022, "airport_name": null, "domestic_emission": 0.0, "international_emission": 0.0, "total_emission": 0.0 }, "geometry": { "type": "Point", "coordinates": [ 86.169739, 22.813786 ] } },
{ "type": "Feature", "properties": { "year": 2023, "airport_name": null, "domestic_emission": null, "international_emission": null, "total_emission": null }, "geometry": { "type": "Point", "coordinates": [ 75.627492, 20.962678 ] } },
{ "type": "Feature", "properties": { "year": 2022, "airport_name": null, "domestic_emission": 324.5763463, "international_emission": 0.0, "total_emission": 324.5763463 }, "geometry": { "type": "Point", "coordinates": [ 93.638792, 26.96683 ] } },
{ "type": "Feature", "properties": { "year": 2022, "airport_name": "HYDERABAD Airport", "domestic_emission": 0.0, "international_emission": 0.0, "total_emission": 0.0 }, "geometry": { "type": "Point", "coordinates": [ 78.467598, 17.4531 ] } },
{ "type": "Feature", "properties": { "year": 2023, "airport_name": null, "domestic_emission": 0.0, "international_emission": 0.0, "total_emission": 0.0 }, "geometry": { "type": "Point", "coordinates": [ 75.758797, 31.4338 ] } },
{ "type": "Feature", "properties": { "year": 2021, "airport_name": null, "domestic_emission": 0.0, "international_emission": 0.0, "total_emission": 0.0 }, "geometry": { "type": "Point", "coordinates": [ 86.169739, 22.813786 ] } },
{ "type": "Feature", "properties": { "year": 2021, "airport_name": null, "domestic_emission": 229.1129781, "international_emission": 0.0, "total_emission": 229.1129781 }, "geometry": { "type": "Point", "coordinates": [ 77.068001, 31.0818 ] } },
{ "type": "Feature", "properties": { "year": 2022, "airport_name": null, "domestic_emission": 0.0, "international_emission": 0.0, "total_emission": 0.0 }, "geometry": { "type": "Point", "coordinates": [ 75.758797, 31.4338 ] } },
{ "type": "Feature", "properties": { "year": 2021, "airport_name": "ROURKELA", "domestic_emission": 0.0, "international_emission": 0.0, "total_emission": 0.0 }, "geometry": { "type": "Point", "coordinates": [ 84.815193, 22.256571 ] } },
{ "type": "Feature", "properties": { "year": 2023, "airport_name": "HYDERABAD Airport", "domestic_emission": 0.0, "international_emission": 0.0, "total_emission": 0.0 }, "geometry": { "type": "Point", "coordinates": [ 78.467598, 17.4531 ] } },
{ "type": "Feature", "properties": { "year": 2024, "airport_name": null, "domestic_emission": null, "international_emission": null, "total_emission": null }, "geometry": { "type": "Point", "coordinates": [ 78.145404, 27.861437 ] } },
{ "type": "Feature", "properties": { "year": 2022, "airport_name": null, "domestic_emission": 0.0, "international_emission": 0.0, "total_emission": 0.0 }, "geometry": { "type": "Point", "coordinates": [ 73.860625, 15.744257 ] } },
{ "type": "Feature", "properties": { "year": 2022, "airport_name": "ROURKELA", "domestic_emission": 0.0, "international_emission": 0.0, "total_emission": 0.0 }, "geometry": { "type": "Point", "coordinates": [ 84.815193, 22.256571 ] } },
{ "type": "Feature", "properties": { "year": 2024, "airport_name": "Moradabad Airport", "domestic_emission": null, "international_emission": null, "total_emission": null }, "geometry": { "type": "Point", "coordinates": [ 78.92187, 28.81746 ] } },
{ "type": "Feature", "properties": { "year": 2021, "airport_name": null, "domestic_emission": 18665.89844, "international_emission": 0.0, "total_emission": 18665.89844 }, "geometry": { "type": "Point", "coordinates": [ 70.77950287, 22.30920029 ] } },
{ "type": "Feature", "properties": { "year": 2022, "airport_name": null, "domestic_emission": 28121.92453, "international_emission": 0.0, "total_emission": 28121.92453 }, "geometry": { "type": "Point", "coordinates": [ 70.77950287, 22.30920029 ] } },
{ "type": "Feature", "properties": { "year": 2021, "airport_name": null, "domestic_emission": 0.0, "international_emission": 0.0, "total_emission": 0.0 }, "geometry": { "type": "Point", "coordinates": [ 73.860625, 15.744257 ] } },
{ "type": "Feature", "properties": { "year": 2021, "airport_name": null, "domestic_emission": null, "international_emission": null, "total_emission": null }, "geometry": { "type": "Point", "coordinates": [ 75.6171, 13.8573 ] } },
{ "type": "Feature", "properties": { "year": 2022, "airport_name": null, "domestic_emission": null, "international_emission": null, "total_emission": null }, "geometry": { "type": "Point", "coordinates": [ 75.6171, 13.8573 ] } },
{ "type": "Feature", "properties": { "year": 2021, "airport_name": null, "domestic_emission": null, "international_emission": null, "total_emission": null }, "geometry": { "type": "Point", "coordinates": [ 78.145404, 27.861437 ] } },
{ "type": "Feature", "properties": { "year": 2022, "airport_name": null, "domestic_emission": null, "international_emission": null, "total_emission": null }, "geometry": { "type": "Point", "coordinates": [ 78.145404, 27.861437 ] } },
{ "type": "Feature", "properties": { "year": 2023, "airport_name": null, "domestic_emission": null, "international_emission": null, "total_emission": null }, "geometry": { "type": "Point", "coordinates": [ 78.145404, 27.861437 ] } },
{ "type": "Feature", "properties": { "year": 2021, "airport_name": "Moradabad Airport", "domestic_emission": null, "international_emission": null, "total_emission": null }, "geometry": { "type": "Point", "coordinates": [ 78.92187, 28.81746 ] } },
{ "type": "Feature", "properties": { "year": 2022, "airport_name": "Moradabad Airport", "domestic_emission": null, "international_emission": null, "total_emission": null }, "geometry": { "type": "Point", "coordinates": [ 78.92187, 28.81746 ] } },
{ "type": "Feature", "properties": { "year": 2023, "airport_name": "Moradabad Airport", "domestic_emission": null, "international_emission": null, "total_emission": null }, "geometry": { "type": "Point", "coordinates": [ 78.92187, 28.81746 ] } },
{ "type": "Feature", "properties": { "year": 2021, "airport_name": "Swami Vivekananda Airport", "domestic_emission": 80538.94578, "international_emission": 0.0, "total_emission": 80538.94578 }, "geometry": { "type": "Point", "coordinates": [ 81.7388, 21.180401 ] } },
{ "type": "Feature", "properties": { "year": 2022, "airport_name": "Swami Vivekananda Airport", "domestic_emission": 95216.07572, "international_emission": 0.0, "total_emission": 95216.07572 }, "geometry": { "type": "Point", "coordinates": [ 81.7388, 21.180401 ] } },
{ "type": "Feature", "properties": { "year": 2023, "airport_name": "Swami Vivekananda Airport", "domestic_emission": 85165.60709, "international_emission": 0.0, "total_emission": 85165.60709 }, "geometry": { "type": "Point", "coordinates": [ 81.7388, 21.180401 ] } },
{ "type": "Feature", "properties": { "year": 2021, "airport_name": "VARANASI", "domestic_emission": 126239.6542, "international_emission": 7514.916755, "total_emission": 133754.571 }, "geometry": { "type": "Point", "coordinates": [ 82.861805, 25.452129 ] } },
{ "type": "Feature", "properties": { "year": 2022, "airport_name": "VARANASI", "domestic_emission": 117259.6908, "international_emission": 11659.748, "total_emission": 128919.4388 }, "geometry": { "type": "Point", "coordinates": [ 82.861805, 25.452129 ] } },
{ "type": "Feature", "properties": { "year": 2021, "airport_name": null, "domestic_emission": 0.0, "international_emission": 0.0, "total_emission": 0.0 }, "geometry": { "type": "Point", "coordinates": [ 93.638792, 26.96683 ] } }
]
}
