{
"type": "FeatureCollection",
"name": "power_plant_emission",
"crs": { "type": "name", "properties": { "name": "urn:ogc:def:crs:OGC:1.3:CRS84" } },
"features": [
{ "type": "Feature", "properties": { "name": "ADANI POWER LIMITED KAWAI TPP", "sector": "THERMAL", "CO2_emission": 3384.35922, "generation (MWh)": 3460.49 }, "geometry": null },
{ "type": "Feature", "properties": { "name": "ADANI POWER LIMITED MUNDRA TPP", "sector": "THERMAL", "CO2_emission": 61.614, "generation (MWh)": 63.000000000000007 }, "geometry": { "type": "Point", "coordinates": [ 69.5511094, 22.8235596 ] } },
{ "type": "Feature", "properties": { "name": "ADANI POWER LIMITED MUNDRA TPP - I & II", "sector": "THERMAL", "CO2_emission": 5636.97684, "generation (MWh)": 5763.78 }, "geometry": { "type": "Point", "coordinates": [ 69.5511094, 22.8235596 ] } },
{ "type": "Feature", "properties": { "name": "ADANI POWER LIMITED MUNDRA TPP - III", "sector": "THERMAL", "CO2_emission": 3998.3085, "generation (MWh)": 4088.25 }, "geometry": { "type": "Point", "coordinates": [ 69.5511094, 22.8235596 ] } },
{ "type": "Feature", "properties": { "name": "ADANI POWER LIMITED RAIGARH TPP", "sector": "THERMAL", "CO2_emission": 1377.63036, "generation (MWh)": 1408.62 }, "geometry": { "type": "Point", "coordinates": [ 83.274093, 21.743775 ] } },
{ "type": "Feature", "properties": { "name": "ADANI POWER LIMITED RAIPUR TPP", "sector": "THERMAL", "CO2_emission": 2675.23098, "generation (MWh)": 2735.41 }, "geometry": { "type": "Point", "coordinates": [ 83.274093, 21.743775 ] } },
{ "type": "Feature", "properties": { "name": "ADANI POWER LIMITED TIRODA TPP", "sector": "THERMAL", "CO2_emission": 6596.91318, "generation (MWh)": 6745.31 }, "geometry": { "type": "Point", "coordinates": [ 74.854206, 21.15103 ] } },
{ "type": "Feature", "properties": { "name": "ADANI POWER LIMITED UDUPI TPP", "sector": "THERMAL", "CO2_emission": 2708.10156, "generation (MWh)": 2769.02 }, "geometry": null },
{ "type": "Feature", "properties": { "name": "AGARTALA GT", "sector": "THER (GT)", "CO2_emission": 1909.65302, "generation (MWh)": 3995.09 }, "geometry": null },
{ "type": "Feature", "properties": { "name": "AKALTARA TPS", "sector": "THERMAL", "CO2_emission": 46883.06082, "generation (MWh)": 47937.69 }, "geometry": { "type": "Point", "coordinates": [ 81.3137040580215, 24.85965209754335 ] } },
{ "type": "Feature", "properties": { "name": "AKRIMOTA LIG TPS", "sector": "THERMAL", "CO2_emission": 3040.05432, "generation (MWh)": 3108.44 }, "geometry": { "type": "Point", "coordinates": [ 68.6455556, 23.7724998 ] } },
{ "type": "Feature", "properties": { "name": "ALIYAR HPS", "sector": "HYDRO", "CO2_emission": 11.84352, "generation (MWh)": 493.48 }, "geometry": null },
{ "type": "Feature", "properties": { "name": "ALLAIN DUHANGAN HPS", "sector": "HYDRO", "CO2_emission": 77.02872, "generation (MWh)": 3209.53 }, "geometry": { "type": "Point", "coordinates": [ 81.3137040580215, 24.85965209754335 ] } },
{ "type": "Feature", "properties": { "name": "ALMATTI DPH HPS", "sector": "HYDRO", "CO2_emission": 62.5932, "generation (MWh)": 2608.05 }, "geometry": { "type": "Point", "coordinates": [ 81.3137040580215, 24.85965209754335 ] } },
{ "type": "Feature", "properties": { "name": "AMARAVATI TPS", "sector": "THERMAL", "CO2_emission": 4198.43664, "generation (MWh)": 4292.88 }, "geometry": { "type": "Point", "coordinates": [ 77.901242, 21.080316 ] } },
{ "type": "Feature", "properties": { "name": "AMARKANTAK EXT TPS", "sector": "THERMAL", "CO2_emission": 7616.03808, "generation (MWh)": 7787.36 }, "geometry": { "type": "Point", "coordinates": [ 81.632816, 23.162146 ] } },
{ "type": "Feature", "properties": { "name": "AMRAVATI TPS", "sector": "THERMAL", "CO2_emission": 27050.5998, "generation (MWh)": 27659.1 }, "geometry": { "type": "Point", "coordinates": [ 77.901242, 21.080316 ] } },
{ "type": "Feature", "properties": { "name": "ANANDPUR SAHIB-I HPS", "sector": "HYDRO", "CO2_emission": 29.88936, "generation (MWh)": 1245.39 }, "geometry": { "type": "Point", "coordinates": [ 81.296166700000015, 24.4848692 ] } },
{ "type": "Feature", "properties": { "name": "ANANDPUR SAHIB-II HPS", "sector": "HYDRO", "CO2_emission": 29.01672, "generation (MWh)": 1209.03 }, "geometry": { "type": "Point", "coordinates": [ 81.285662100000025, 24.1873668 ] } },
{ "type": "Feature", "properties": { "name": "AND. NICOBAR DG", "sector": "THER (DG)", "CO2_emission": 633.86136, "generation (MWh)": 648.12 }, "geometry": null },
{ "type": "Feature", "properties": { "name": "AND. NICOBAR Pvt. DG", "sector": "THER (DG)", "CO2_emission": 248.2164, "generation (MWh)": 253.8 }, "geometry": null },
{ "type": "Feature", "properties": { "name": "ANPARA C TPS", "sector": "THERMAL", "CO2_emission": 38314.62678, "generation (MWh)": 39176.51 }, "geometry": { "type": "Point", "coordinates": [ 82.789128, 24.202043 ] } },
{ "type": "Feature", "properties": { "name": "ANPARA TPS", "sector": "THERMAL", "CO2_emission": 81806.345460000011, "generation (MWh)": 83646.57 }, "geometry": { "type": "Point", "coordinates": [ 82.789128, 24.202043 ] } },
{ "type": "Feature", "properties": { "name": "ANTA CCPP", "sector": "THER (GT)", "CO2_emission": 667.66562, "generation (MWh)": 1396.79 }, "geometry": { "type": "Point", "coordinates": [ 81.296166700000015, 24.4848692 ] } },
{ "type": "Feature", "properties": { "name": "ANUPPUR TPP", "sector": "THERMAL", "CO2_emission": 35083.07028, "generation (MWh)": 35872.26 }, "geometry": { "type": "Point", "coordinates": [ 81.784286, 23.073731 ] } },
{ "type": "Feature", "properties": { "name": "AURAIYA CCPP", "sector": "THER (GT)", "CO2_emission": 1055.00814, "generation (MWh)": 2207.13 }, "geometry": { "type": "Point", "coordinates": [ 81.296166700000015, 24.4848692 ] } },
{ "type": "Feature", "properties": { "name": "AVANTHA BHANDAR", "sector": "THERMAL", "CO2_emission": 12041.36094, "generation (MWh)": 12312.23 }, "geometry": null },
{ "type": "Feature", "properties": { "name": "BAGLIHAR HPS", "sector": "HYDRO", "CO2_emission": 306.36528, "generation (MWh)": 12765.22 }, "geometry": { "type": "Point", "coordinates": [ 79.92425525, 22.9430019 ] } },
{ "type": "Feature", "properties": { "name": "BAGLIHAR II HPS", "sector": "HYDRO", "CO2_emission": 204.4992, "generation (MWh)": 8520.8 }, "geometry": { "type": "Point", "coordinates": [ 81.285662100000025, 24.1873668 ] } },
{ "type": "Feature", "properties": { "name": "BAIRA SIUL HPS", "sector": "HYDRO", "CO2_emission": 54.94944, "generation (MWh)": 2289.56 }, "geometry": { "type": "Point", "coordinates": [ 78.220056117803807, 29.976251277146527 ] } },
{ "type": "Feature", "properties": { "name": "BAJOLI HOLI HPS", "sector": "HYDRO", "CO2_emission": 24.81576, "generation (MWh)": 1033.99 }, "geometry": { "type": "Point", "coordinates": [ 72.756484541504065, 22.237523367004655 ] } },
{ "type": "Feature", "properties": { "name": "BAKRESWAR TPS", "sector": "THERMAL", "CO2_emission": 37934.68356, "generation (MWh)": 38788.02 }, "geometry": { "type": "Point", "coordinates": [ 87.451034, 23.8292205 ] } },
{ "type": "Feature", "properties": { "name": "BALCO TPS", "sector": "THERMAL", "CO2_emission": 15557.535, "generation (MWh)": 15907.5 }, "geometry": { "type": "Point", "coordinates": [ 82.7439443, 22.3930944 ] } },
{ "type": "Feature", "properties": { "name": "BALIMELA HPS", "sector": "HYDRO", "CO2_emission": 143.82696, "generation (MWh)": 5992.79 }, "geometry": { "type": "Point", "coordinates": [ 75.55393865, 24.7013783 ] } },
{ "type": "Feature", "properties": { "name": "BANDAKHAR TPP", "sector": "THERMAL", "CO2_emission": 9388.4577, "generation (MWh)": 9599.65 }, "geometry": { "type": "Point", "coordinates": [ 82.430603, 22.340954 ] } },
{ "type": "Feature", "properties": { "name": "BANDEL TPS", "sector": "THERMAL", "CO2_emission": 7026.0498, "generation (MWh)": 7184.1 }, "geometry": { "type": "Point", "coordinates": [ 88.403815, 22.995746 ] } },
{ "type": "Feature", "properties": { "name": "BANSAGAR-II HPS", "sector": "HYDRO", "CO2_emission": 10.78128, "generation (MWh)": 449.22 }, "geometry": { "type": "Point", "coordinates": [ 81.296166700000015, 24.4848692 ] } },
{ "type": "Feature", "properties": { "name": "BANSAGAR-III HPS", "sector": "HYDRO", "CO2_emission": 14.448, "generation (MWh)": 602.0 }, "geometry": { "type": "Point", "coordinates": [ 81.285662100000025, 24.1873668 ] } },
{ "type": "Feature", "properties": { "name": "BANSAGAR TONS-I HPS", "sector": "HYDRO", "CO2_emission": 111.7572, "generation (MWh)": 4656.55 }, "geometry": { "type": "Point", "coordinates": [ 81.3137040580215, 24.85965209754335 ] } },
{ "type": "Feature", "properties": { "name": "BARADARHA TPS", "sector": "THERMAL", "CO2_emission": 37161.64302, "generation (MWh)": 37997.59 }, "geometry": { "type": "Point", "coordinates": [ 83.188863, 21.911436 ] } },
{ "type": "Feature", "properties": { "name": "BARAMURA GT", "sector": "THER (GT)", "CO2_emission": 527.40608, "generation (MWh)": 1103.36 }, "geometry": null },
{ "type": "Feature", "properties": { "name": "BARAUNI TPS", "sector": "THERMAL", "CO2_emission": 9718.52292, "generation (MWh)": 9937.14 }, "geometry": { "type": "Point", "coordinates": [ 86.023488, 25.391376 ] } },
{ "type": "Feature", "properties": { "name": "BARGI HPS", "sector": "HYDRO", "CO2_emission": 46.77552, "generation (MWh)": 1948.98 }, "geometry": { "type": "Point", "coordinates": [ 79.92425525, 22.9430019 ] } },
{ "type": "Feature", "properties": { "name": "BARH I", "sector": "THERMAL", "CO2_emission": 2104.27458, "generation (MWh)": 2151.61 }, "geometry": { "type": "Point", "coordinates": [ 85.74516, 25.4693 ] } },
{ "type": "Feature", "properties": { "name": "BARH II", "sector": "THERMAL", "CO2_emission": 26771.48838, "generation (MWh)": 27373.71 }, "geometry": { "type": "Point", "coordinates": [ 85.74516, 25.4693 ] } },
{ "type": "Feature", "properties": { "name": "BARH STPS", "sector": "THERMAL", "CO2_emission": 20069.2935, "generation (MWh)": 20520.75 }, "geometry": { "type": "Point", "coordinates": [ 85.74516, 25.4693 ] } },
{ "type": "Feature", "properties": { "name": "BARKHERA TPS", "sector": "THERMAL", "CO2_emission": 1051.839, "generation (MWh)": 1075.5 }, "geometry": { "type": "Point", "coordinates": [ 80.1, 28.55 ] } },
{ "type": "Feature", "properties": { "name": "BARODA CCPP", "sector": "THER (GT)", "CO2_emission": 5.18152, "generation (MWh)": 10.84 }, "geometry": null },
{ "type": "Feature", "properties": { "name": "BARSINGSAR LIGNITE", "sector": "THERMAL", "CO2_emission": 7517.86644, "generation (MWh)": 7686.98 }, "geometry": { "type": "Point", "coordinates": [ 73.199426, 27.845022 ] } },
{ "type": "Feature", "properties": { "name": "BASIN BRIDGE GT (Liq.)", "sector": "THER (GT)", "CO2_emission": 0.32504, "generation (MWh)": 0.68 }, "geometry": { "type": "Point", "coordinates": [ 79.92425525, 22.9430019 ] } },
{ "type": "Feature", "properties": { "name": "BASPA HPS", "sector": "HYDRO", "CO2_emission": 152.48352, "generation (MWh)": 6353.48 }, "geometry": { "type": "Point", "coordinates": [ 76.469538300280917, 22.288722401290507 ] } },
{ "type": "Feature", "properties": { "name": "BASSI HPS", "sector": "HYDRO", "CO2_emission": 35.55312, "generation (MWh)": 1481.38 }, "geometry": { "type": "Point", "coordinates": [ 81.296166700000015, 24.4848692 ] } },
{ "type": "Feature", "properties": { "name": "BELA TPS", "sector": "THERMAL", "CO2_emission": 2013.85848, "generation (MWh)": 2059.16 }, "geometry": { "type": "Point", "coordinates": [ 79.054892, 20.80915 ] } },
{ "type": "Feature", "properties": { "name": "BELLARY TPS", "sector": "THERMAL", "CO2_emission": 27674.37798, "generation (MWh)": 28296.91 }, "geometry": { "type": "Point", "coordinates": [ 76.7195034, 15.1931738 ] } },
{ "type": "Feature", "properties": { "name": "BHADRADRI TPP", "sector": "THERMAL", "CO2_emission": 17872.63704, "generation (MWh)": 18274.68 }, "geometry": { "type": "Point", "coordinates": [ 80.735645, 18.027488 ] } },
{ "type": "Feature", "properties": { "name": "BHADRA HPS", "sector": "HYDRO", "CO2_emission": 8.08776, "generation (MWh)": 336.99 }, "geometry": { "type": "Point", "coordinates": [ 78.220056117803807, 29.976251277146527 ] } },
{ "type": "Feature", "properties": { "name": "BHAKRA LEFT HPS", "sector": "HYDRO", "CO2_emission": 288.27744, "generation (MWh)": 12011.56 }, "geometry": { "type": "Point", "coordinates": [ 81.285662100000025, 24.1873668 ] } },
{ "type": "Feature", "properties": { "name": "BHAKRA RIGHT HPS", "sector": "HYDRO", "CO2_emission": 334.27128, "generation (MWh)": 13927.97 }, "geometry": { "type": "Point", "coordinates": [ 79.92425525, 22.9430019 ] } },
{ "type": "Feature", "properties": { "name": "BHANDARDHARA HPS ST-II", "sector": "HYDRO", "CO2_emission": 4.26192, "generation (MWh)": 177.58 }, "geometry": { "type": "Point", "coordinates": [ 78.220056117803807, 29.976251277146527 ] } },
{ "type": "Feature", "properties": { "name": "BHAVNAGAR CFBC TPP", "sector": "THERMAL", "CO2_emission": 6071.1795, "generation (MWh)": 6207.75 }, "geometry": { "type": "Point", "coordinates": [ 72.222179, 21.583152 ] } },
{ "type": "Feature", "properties": { "name": "BHAWANI BARRAGE-II HPS", "sector": "HYDRO", "CO2_emission": 9.76608, "generation (MWh)": 406.92 }, "geometry": { "type": "Point", "coordinates": [ 81.285662100000025, 24.1873668 ] } },
{ "type": "Feature", "properties": { "name": "BHAWANI BARRAGE-III HPS", "sector": "HYDRO", "CO2_emission": 6.71688, "generation (MWh)": 279.87 }, "geometry": { "type": "Point", "coordinates": [ 79.92425525, 22.9430019 ] } },
{ "type": "Feature", "properties": { "name": "BHAWANI KATTAL", "sector": "HYDRO", "CO2_emission": 12.31008, "generation (MWh)": 512.92 }, "geometry": { "type": "Point", "coordinates": [ 74.438253548017244, 14.865741781007195 ] } },
{ "type": "Feature", "properties": { "name": "BHILAI TPS", "sector": "THERMAL", "CO2_emission": 16627.92666, "generation (MWh)": 17001.97 }, "geometry": { "type": "Point", "coordinates": [ 81.4237, 21.184 ] } },
{ "type": "Feature", "properties": { "name": "BHIRA HPS", "sector": "HYDRO", "CO2_emission": 52.79136, "generation (MWh)": 2199.64 }, "geometry": { "type": "Point", "coordinates": [ 72.756484541504065, 22.237523367004655 ] } },
{ "type": "Feature", "properties": { "name": "BHIRA PSS HPS", "sector": "HYDRO", "CO2_emission": 64.74672, "generation (MWh)": 2697.78 }, "geometry": { "type": "Point", "coordinates": [ 72.756484541504065, 22.237523367004655 ] } },
{ "type": "Feature", "properties": { "name": "BHIRA TAIL RACE HPS", "sector": "HYDRO", "CO2_emission": 12.26016, "generation (MWh)": 510.84 }, "geometry": { "type": "Point", "coordinates": [ 76.87618305, 31.3821876 ] } },
{ "type": "Feature", "properties": { "name": "BHIVPURI HPS", "sector": "HYDRO", "CO2_emission": 36.6264, "generation (MWh)": 1526.1 }, "geometry": { "type": "Point", "coordinates": [ 77.704025588486047, 8.174025974034926 ] } },
{ "type": "Feature", "properties": { "name": "BHUSAWAL TPS", "sector": "THERMAL", "CO2_emission": 30249.54, "generation (MWh)": 30930.0 }, "geometry": { "type": "Point", "coordinates": [ 75.85502, 21.04798 ] } },
{ "type": "Feature", "properties": { "name": "BINA TPS", "sector": "THERMAL", "CO2_emission": 13025.84508, "generation (MWh)": 13318.86 }, "geometry": { "type": "Point", "coordinates": [ 78.133564, 24.317222 ] } },
{ "type": "Feature", "properties": { "name": "BINJKOTE TPP", "sector": "THERMAL", "CO2_emission": 9588.86946, "generation (MWh)": 9804.57 }, "geometry": { "type": "Point", "coordinates": [ 83.205779, 22.010422 ] } },
{ "type": "Feature", "properties": { "name": "BOKARO TPS `A` EXP", "sector": "THERMAL", "CO2_emission": 15938.84742, "generation (MWh)": 16297.39 }, "geometry": { "type": "Point", "coordinates": [ 86.092944, 23.685875 ] } },
{ "type": "Feature", "properties": { "name": "BOKARO `B` TPS", "sector": "THERMAL", "CO2_emission": 190.70022, "generation (MWh)": 194.99 }, "geometry": { "type": "Point", "coordinates": [ 86.092944, 23.685875 ] } },
{ "type": "Feature", "properties": { "name": "BONGAIGAON TPP", "sector": "THERMAL", "CO2_emission": 20063.38638, "generation (MWh)": 20514.71 }, "geometry": { "type": "Point", "coordinates": [ 90.367205, 26.44437 ] } },
{ "type": "Feature", "properties": { "name": "BUDGE BUDGE TPS", "sector": "THERMAL", "CO2_emission": 26611.49736, "generation (MWh)": 27210.12 }, "geometry": { "type": "Point", "coordinates": [ 88.139949, 22.470344 ] } },
{ "type": "Feature", "properties": { "name": "BUDHIL HPS", "sector": "HYDRO", "CO2_emission": 31.98624, "generation (MWh)": 1332.76 }, "geometry": null },
{ "type": "Feature", "properties": { "name": "BUTIBORI TPP", "sector": "THERMAL", "CO2_emission": 84.67524, "generation (MWh)": 86.58 }, "geometry": { "type": "Point", "coordinates": [ 78.933281, 20.928591 ] } },
{ "type": "Feature", "properties": { "name": "CHAKABURA TPP", "sector": "THERMAL", "CO2_emission": 904.02408, "generation (MWh)": 924.36 }, "geometry": { "type": "Point", "coordinates": [ 82.553249, 22.393653 ] } },
{ "type": "Feature", "properties": { "name": "CHAMERA- I HPS", "sector": "HYDRO", "CO2_emission": 109.58328, "generation (MWh)": 4565.97 }, "geometry": { "type": "Point", "coordinates": [ 74.196864398772959, 34.151251668259391 ] } },
{ "type": "Feature", "properties": { "name": "CHAMERA-I HPS", "sector": "HYDRO", "CO2_emission": 140.99496, "generation (MWh)": 5874.79 }, "geometry": { "type": "Point", "coordinates": [ 78.371918473932965, 25.100223702015537 ] } },
{ "type": "Feature", "properties": { "name": "CHAMERA- II HPS", "sector": "HYDRO", "CO2_emission": 43.98696, "generation (MWh)": 1832.79 }, "geometry": { "type": "Point", "coordinates": [ 77.704067917058865, 16.332605758503171 ] } },
{ "type": "Feature", "properties": { "name": "CHAMERA-II HPS", "sector": "HYDRO", "CO2_emission": 92.99808, "generation (MWh)": 3874.92 }, "geometry": { "type": "Point", "coordinates": [ 76.16355893709428, 22.245137864256652 ] } },
{ "type": "Feature", "properties": { "name": "CHAMERA-III HPS", "sector": "HYDRO", "CO2_emission": 112.83816, "generation (MWh)": 4701.59 }, "geometry": { "type": "Point", "coordinates": [ 77.331960099753914, 31.785521913598245 ] } },
{ "type": "Feature", "properties": { "name": "CHANDRAPURA(DVC) TPS", "sector": "THERMAL", "CO2_emission": 16980.83796, "generation (MWh)": 17362.82 }, "geometry": { "type": "Point", "coordinates": [ 86.1202088, 23.7412565 ] } },
{ "type": "Feature", "properties": { "name": "CHANDRAPUR(MAHARASHTRA) STPS", "sector": "THERMAL", "CO2_emission": 75201.14862000001, "generation (MWh)": 76892.79 }, "geometry": { "type": "Point", "coordinates": [ 79.29, 20.0063 ] } },
{ "type": "Feature", "properties": { "name": "CHANJU-I HPS", "sector": "HYDRO", "CO2_emission": 17.83584, "generation (MWh)": 743.16 }, "geometry": null },
{ "type": "Feature", "properties": { "name": "CHHABRA-II TPP", "sector": "THERMAL", "CO2_emission": 16243.02498, "generation (MWh)": 16608.41 }, "geometry": { "type": "Point", "coordinates": [ 77.035439, 24.62092 ] } },
{ "type": "Feature", "properties": { "name": "CHHABRA-I PH-1 TPP", "sector": "THERMAL", "CO2_emission": 7534.7076, "generation (MWh)": 7704.2 }, "geometry": { "type": "Point", "coordinates": [ 77.035439, 24.62092 ] } },
{ "type": "Feature", "properties": { "name": "CHHABRA-I PH-2 TPP", "sector": "THERMAL", "CO2_emission": 4674.09672, "generation (MWh)": 4779.24 }, "geometry": { "type": "Point", "coordinates": [ 77.035439, 24.62092 ] } },
{ "type": "Feature", "properties": { "name": "CHHABRA TPP", "sector": "THERMAL", "CO2_emission": 31324.78254, "generation (MWh)": 32029.43 }, "geometry": { "type": "Point", "coordinates": [ 77.035439, 24.62092 ] } },
{ "type": "Feature", "properties": { "name": "CHIBRO (YAMUNA) HPS", "sector": "HYDRO", "CO2_emission": 101.04624, "generation (MWh)": 4210.26 }, "geometry": { "type": "Point", "coordinates": [ 75.55393865, 24.7013783 ] } },
{ "type": "Feature", "properties": { "name": "CHILLA HPS", "sector": "HYDRO", "CO2_emission": 90.2184, "generation (MWh)": 3759.1 }, "geometry": { "type": "Point", "coordinates": [ 78.220056117803807, 29.976251277146527 ] } },
{ "type": "Feature", "properties": { "name": "CHIPLIMA HPS", "sector": "HYDRO", "CO2_emission": 33.01896, "generation (MWh)": 1375.79 }, "geometry": { "type": "Point", "coordinates": [ 77.704067917058865, 16.332605758503171 ] } },
{ "type": "Feature", "properties": { "name": "CHUTAK HPS", "sector": "HYDRO", "CO2_emission": 17.97768, "generation (MWh)": 749.07 }, "geometry": { "type": "Point", "coordinates": [ 75.55393865, 24.7013783 ] } },
{ "type": "Feature", "properties": { "name": "CHUZACHEN HPS", "sector": "HYDRO", "CO2_emission": 57.30048, "generation (MWh)": 2387.52 }, "geometry": null },
{ "type": "Feature", "properties": { "name": "DADRI CCPP", "sector": "THER (GT)", "CO2_emission": 2842.15932, "generation (MWh)": 5945.94 }, "geometry": { "type": "Point", "coordinates": [ 78.220056117803807, 29.976251277146527 ] } },
{ "type": "Feature", "properties": { "name": "DADRI (NCTPP)", "sector": "THERMAL", "CO2_emission": 36013.98936, "generation (MWh)": 36824.12 }, "geometry": { "type": "Point", "coordinates": [ 77.6078, 28.603 ] } },
{ "type": "Feature", "properties": { "name": "DAHANU TPS", "sector": "THERMAL", "CO2_emission": 15675.6285, "generation (MWh)": 16028.25 }, "geometry": { "type": "Point", "coordinates": [ 72.748691, 19.9534834 ] } },
{ "type": "Feature", "properties": { "name": "DAMODARAM SANJEEVAIAH TPS", "sector": "THERMAL", "CO2_emission": 33335.24736, "generation (MWh)": 34085.12 }, "geometry": { "type": "Point", "coordinates": [ 80.122105, 14.327604 ] } },
{ "type": "Feature", "properties": { "name": "DARLIPALI STPS", "sector": "THERMAL", "CO2_emission": 33420.03018, "generation (MWh)": 34171.81 }, "geometry": { "type": "Point", "coordinates": [ 83.89187, 21.963554 ] } },
{ "type": "Feature", "properties": { "name": "DEHAR H P S", "sector": "HYDRO", "CO2_emission": 143.72424, "generation (MWh)": 5988.51 }, "geometry": null },
{ "type": "Feature", "properties": { "name": "DEHAR HPS", "sector": "HYDRO", "CO2_emission": 214.81368, "generation (MWh)": 8950.57 }, "geometry": null },
{ "type": "Feature", "properties": { "name": "DERANG TPP", "sector": "THERMAL", "CO2_emission": 32452.23072, "generation (MWh)": 33182.24 }, "geometry": { "type": "Point", "coordinates": [ 84.99039, 20.892474 ] } },
{ "type": "Feature", "properties": { "name": "DGEN MEGA CCPP", "sector": "THER (GT)", "CO2_emission": 834.63102, "generation (MWh)": 1746.09 }, "geometry": { "type": "Point", "coordinates": [ 76.469538300280917, 22.288722401290507 ] } },
{ "type": "Feature", "properties": { "name": "DHAKRANI HPS", "sector": "HYDRO", "CO2_emission": 17.29344, "generation (MWh)": 720.56 }, "geometry": { "type": "Point", "coordinates": [ 75.915917621716162, 32.624130313145024 ] } },
{ "type": "Feature", "properties": { "name": "DHALIPUR HPS", "sector": "HYDRO", "CO2_emission": 24.37512, "generation (MWh)": 1015.63 }, "geometry": { "type": "Point", "coordinates": [ 72.668000406644524, 19.832946158682745 ] } },
{ "type": "Feature", "properties": { "name": "DHARIWAL TPP", "sector": "THERMAL", "CO2_emission": 18684.25968, "generation (MWh)": 19104.56 }, "geometry": { "type": "Point", "coordinates": [ 79.203433, 20.010588 ] } },
{ "type": "Feature", "properties": { "name": "DHAULI GANGA HPS", "sector": "HYDRO", "CO2_emission": 138.95136, "generation (MWh)": 5789.64 }, "geometry": { "type": "Point", "coordinates": [ 74.438253548017244, 14.865741781007195 ] } },
{ "type": "Feature", "properties": { "name": "DHOLPUR CCPP", "sector": "THER (GT)", "CO2_emission": 59.27678, "generation (MWh)": 124.01 }, "geometry": { "type": "Point", "coordinates": [ 76.87618305, 31.3821876 ] } },
{ "type": "Feature", "properties": { "name": "DHUVARAN CCPP", "sector": "THER (GT)", "CO2_emission": 1220.46784, "generation (MWh)": 2553.28 }, "geometry": { "type": "Point", "coordinates": [ 72.756484541504065, 22.237523367004655 ] } },
{ "type": "Feature", "properties": { "name": "DIKCHU HPS", "sector": "HYDRO", "CO2_emission": 55.65288, "generation (MWh)": 2318.87 }, "geometry": null },
{ "type": "Feature", "properties": { "name": "DISHERGARH TPP", "sector": "THERMAL", "CO2_emission": 78.22044, "generation (MWh)": 79.98 }, "geometry": null },
{ "type": "Feature", "properties": { "name": "DOYANG HPS", "sector": "HYDRO", "CO2_emission": 19.72896, "generation (MWh)": 822.04 }, "geometry": null },
{ "type": "Feature", "properties": { "name": "D.P.L. TPS", "sector": "THERMAL", "CO2_emission": 11839.97118, "generation (MWh)": 12106.31 }, "geometry": null },
{ "type": "Feature", "properties": { "name": "Dr. N.TATA RAO TPS", "sector": "THERMAL", "CO2_emission": 51960.62166, "generation (MWh)": 53129.47 }, "geometry": { "type": "Point", "coordinates": [ 80.5365853, 16.5984901 ] } },
{ "type": "Feature", "properties": { "name": "DSPM TPS", "sector": "THERMAL", "CO2_emission": 17697.46746, "generation (MWh)": 18095.57 }, "geometry": null },
{ "type": "Feature", "properties": { "name": "DULHASTI HPS", "sector": "HYDRO", "CO2_emission": 247.99944, "generation (MWh)": 10333.31 }, "geometry": { "type": "Point", "coordinates": [ 76.469538300280917, 22.288722401290507 ] } },
{ "type": "Feature", "properties": { "name": "DURGAPUR STEEL TPS", "sector": "THERMAL", "CO2_emission": 31225.4373, "generation (MWh)": 31927.85 }, "geometry": { "type": "Point", "coordinates": [ 87.302309, 23.521147 ] } },
{ "type": "Feature", "properties": { "name": "DURGAPUR TPS", "sector": "THERMAL", "CO2_emission": 1163.49726, "generation (MWh)": 1189.67 }, "geometry": { "type": "Point", "coordinates": [ 87.302309, 23.521147 ] } },
{ "type": "Feature", "properties": { "name": "ESSAR CCPP", "sector": "THER (GT)", "CO2_emission": 0.4541, "generation (MWh)": 0.95 }, "geometry": { "type": "Point", "coordinates": [ 72.756484541504065, 22.237523367004655 ] } },
{ "type": "Feature", "properties": { "name": "FARAKKA STPS", "sector": "THERMAL", "CO2_emission": 61160.38404, "generation (MWh)": 62536.18 }, "geometry": { "type": "Point", "coordinates": [ 87.893707, 24.772729 ] } },
{ "type": "Feature", "properties": { "name": "FARIDABAD CCPP", "sector": "THER (GT)", "CO2_emission": 921.0343, "generation (MWh)": 1926.85 }, "geometry": { "type": "Point", "coordinates": [ 77.704025588486047, 8.174025974034926 ] } },
{ "type": "Feature", "properties": { "name": "GADARWARA TPP", "sector": "THERMAL", "CO2_emission": 29777.72346, "generation (MWh)": 30447.57 }, "geometry": { "type": "Point", "coordinates": [ 78.866129, 22.861752 ] } },
{ "type": "Feature", "properties": { "name": "GAMA CCPP", "sector": "THER (GT)", "CO2_emission": 728.62496, "generation (MWh)": 1524.32 }, "geometry": { "type": "Point", "coordinates": [ 75.55393865, 24.7013783 ] } },
{ "type": "Feature", "properties": { "name": "GANDHAR CCPP", "sector": "THER (GT)", "CO2_emission": 1026.68664, "generation (MWh)": 2147.88 }, "geometry": { "type": "Point", "coordinates": [ 74.196864398772959, 34.151251668259391 ] } },
{ "type": "Feature", "properties": { "name": "GANDHI NAGAR TPS", "sector": "THERMAL", "CO2_emission": 12894.76374, "generation (MWh)": 13184.83 }, "geometry": { "type": "Point", "coordinates": [ 72.673889, 23.249722 ] } },
{ "type": "Feature", "properties": { "name": "GANDHI SAGAR HPS", "sector": "HYDRO", "CO2_emission": 24.85536, "generation (MWh)": 1035.64 }, "geometry": { "type": "Point", "coordinates": [ 75.55393865, 24.7013783 ] } },
{ "type": "Feature", "properties": { "name": "GANGUWAL HPS", "sector": "HYDRO", "CO2_emission": 71.35248, "generation (MWh)": 2973.02 }, "geometry": { "type": "Point", "coordinates": [ 88.441865223689916, 27.002319554799506 ] } },
{ "type": "Feature", "properties": { "name": "GERUSUPPA HPS", "sector": "HYDRO", "CO2_emission": 59.23152, "generation (MWh)": 2467.98 }, "geometry": { "type": "Point", "coordinates": [ 74.438253548017244, 14.865741781007195 ] } },
{ "type": "Feature", "properties": { "name": "GHATGHAR PSS HPS", "sector": "HYDRO", "CO2_emission": 15.64704, "generation (MWh)": 651.96 }, "geometry": { "type": "Point", "coordinates": [ 76.469538300280917, 22.288722401290507 ] } },
{ "type": "Feature", "properties": { "name": "GHAT PRABHA HPS", "sector": "HYDRO", "CO2_emission": 9.11256, "generation (MWh)": 379.69 }, "geometry": null },
{ "type": "Feature", "properties": { "name": "GH TPS (LEH.MOH.)", "sector": "THERMAL", "CO2_emission": 11229.42534, "generation (MWh)": 11482.03 }, "geometry": null },
{ "type": "Feature", "properties": { "name": "GIPCL. GT IMP", "sector": "THER (GT)", "CO2_emission": 229.36352, "generation (MWh)": 479.84 }, "geometry": null },
{ "type": "Feature", "properties": { "name": "GIRI BATA HPS", "sector": "HYDRO", "CO2_emission": 25.91568, "generation (MWh)": 1079.82 }, "geometry": null },
{ "type": "Feature", "properties": { "name": "GMR WARORA TPS", "sector": "THERMAL", "CO2_emission": 19453.01658, "generation (MWh)": 19890.61 }, "geometry": { "type": "Point", "coordinates": [ 74.896935450000015, 34.26739945 ] } },
{ "type": "Feature", "properties": { "name": "GODAVARI CCPP", "sector": "THER (GT)", "CO2_emission": 577.84464, "generation (MWh)": 1208.88 }, "geometry": null },
{ "type": "Feature", "properties": { "name": "GOINDWAL SAHIB TPP", "sector": "THERMAL", "CO2_emission": 9173.151, "generation (MWh)": 9379.5 }, "geometry": { "type": "Point", "coordinates": [ 75.146503, 31.38414 ] } },
{ "type": "Feature", "properties": { "name": "HALDIA GT (Liq.)", "sector": "THER (GT)", "CO2_emission": 18.57508, "generation (MWh)": 38.86 }, "geometry": { "type": "Point", "coordinates": [ 74.438253548017244, 14.865741781007195 ] } },
{ "type": "Feature", "properties": { "name": "HALDIA TPP", "sector": "THERMAL", "CO2_emission": 20616.52362, "generation (MWh)": 21080.29 }, "geometry": { "type": "Point", "coordinates": [ 88.109748, 22.060459 ] } },
{ "type": "Feature", "properties": { "name": "HAMPI HPS", "sector": "HYDRO", "CO2_emission": 4.60776, "generation (MWh)": 191.99 }, "geometry": { "type": "Point", "coordinates": [ 77.704067917058865, 16.332605758503171 ] } },
{ "type": "Feature", "properties": { "name": "HARDUAGANJ TPS", "sector": "THERMAL", "CO2_emission": 17787.65862, "generation (MWh)": 18187.79 }, "geometry": { "type": "Point", "coordinates": [ 78.13, 28.0175 ] } },
{ "type": "Feature", "properties": { "name": "HASDEOBANGO HPS", "sector": "HYDRO", "CO2_emission": 37.6908, "generation (MWh)": 1570.45 }, "geometry": null },
{ "type": "Feature", "properties": { "name": "HAZIRA CCPP", "sector": "THER (GT)", "CO2_emission": 164.9339, "generation (MWh)": 345.05 }, "geometry": { "type": "Point", "coordinates": [ 78.371918473932965, 25.100223702015537 ] } },
{ "type": "Feature", "properties": { "name": "HAZIRA CCPP EXT", "sector": "THER (GT)", "CO2_emission": 731.61724, "generation (MWh)": 1530.58 }, "geometry": { "type": "Point", "coordinates": [ 76.87618305, 31.3821876 ] } },
{ "type": "Feature", "properties": { "name": "HIRAKUD HPS", "sector": "HYDRO", "CO2_emission": 83.67936, "generation (MWh)": 3486.64 }, "geometry": null },
{ "type": "Feature", "properties": { "name": "HIRANMAYE TPP", "sector": "THERMAL", "CO2_emission": 4739.28042, "generation (MWh)": 4845.89 }, "geometry": { "type": "Point", "coordinates": [ 88.098413, 22.076989 ] } },
{ "type": "Feature", "properties": { "name": "IB VALLEY TPS", "sector": "THERMAL", "CO2_emission": 44375.71332, "generation (MWh)": 45373.94 }, "geometry": { "type": "Point", "coordinates": [ 83.8601567, 21.6897827 ] } },
{ "type": "Feature", "properties": { "name": "ICCL IMP", "sector": "THERMAL", "CO2_emission": 1417.8555, "generation (MWh)": 1449.75 }, "geometry": null },
{ "type": "Feature", "properties": { "name": "IDAMALAYAR HPS", "sector": "HYDRO", "CO2_emission": 35.62176, "generation (MWh)": 1484.24 }, "geometry": { "type": "Point", "coordinates": [ 72.970313382624497, 18.881512434811217 ] } },
{ "type": "Feature", "properties": { "name": "IDUKKI HPS", "sector": "HYDRO", "CO2_emission": 308.10912, "generation (MWh)": 12837.88 }, "geometry": { "type": "Point", "coordinates": [ 76.16355893709428, 22.245137864256652 ] } },
{ "type": "Feature", "properties": { "name": "INDIRA GANDHI STPP", "sector": "THERMAL", "CO2_emission": 30609.48312, "generation (MWh)": 31298.04 }, "geometry": { "type": "Point", "coordinates": [ 76.37316, 28.485091 ] } },
{ "type": "Feature", "properties": { "name": "INDIRA SAGAR HPS", "sector": "HYDRO", "CO2_emission": 327.11304, "generation (MWh)": 13629.71 }, "geometry": { "type": "Point", "coordinates": [ 76.469538300280917, 22.288722401290507 ] } },
{ "type": "Feature", "properties": { "name": "I.P.CCPP", "sector": "THER (GT)", "CO2_emission": 853.13918, "generation (MWh)": 1784.81 }, "geometry": { "type": "Point", "coordinates": [ 77.704025588486047, 8.174025974034926 ] } },
{ "type": "Feature", "properties": { "name": "ITPCL TPP", "sector": "THERMAL", "CO2_emission": 22205.89098, "generation (MWh)": 22705.41 }, "geometry": null },
{ "type": "Feature", "properties": { "name": "JALDHAKA HPS ST-I", "sector": "HYDRO", "CO2_emission": 20.75424, "generation (MWh)": 864.76 }, "geometry": null },
{ "type": "Feature", "properties": { "name": "JALIPA KAPURDI TPP", "sector": "THERMAL", "CO2_emission": 32564.38776, "generation (MWh)": 33296.92 }, "geometry": { "type": "Point", "coordinates": [ 71.3262764, 25.8948022 ] } },
{ "type": "Feature", "properties": { "name": "JAWAHAR SAGAR HPS", "sector": "HYDRO", "CO2_emission": 34.02168, "generation (MWh)": 1417.57 }, "geometry": { "type": "Point", "coordinates": [ 74.0688891, 34.1141588 ] } },
{ "type": "Feature", "properties": { "name": "JEGURUPADU CCPP PH I", "sector": "THER (GT)", "CO2_emission": 994.45032, "generation (MWh)": 2080.44 }, "geometry": { "type": "Point", "coordinates": [ 74.196864398772959, 34.151251668259391 ] } },
{ "type": "Feature", "properties": { "name": "JOG HPS", "sector": "HYDRO", "CO2_emission": 48.40464, "generation (MWh)": 2016.86 }, "geometry": null },
{ "type": "Feature", "properties": { "name": "JOJOBERA TPS", "sector": "THERMAL", "CO2_emission": 7746.6891, "generation (MWh)": 7920.95 }, "geometry": { "type": "Point", "coordinates": [ 86.2452, 22.7531 ] } },
{ "type": "Feature", "properties": { "name": "JORETHANG LOOP", "sector": "HYDRO", "CO2_emission": 48.8724, "generation (MWh)": 2036.35 }, "geometry": null },
{ "type": "Feature", "properties": { "name": "JSW RATNAGIRI TPP", "sector": "THERMAL", "CO2_emission": 20043.49386, "generation (MWh)": 20494.37 }, "geometry": { "type": "Point", "coordinates": [ 72.740525, 19.794507 ] } },
{ "type": "Feature", "properties": { "name": "KADAMPARI HPS", "sector": "HYDRO", "CO2_emission": 31.32864, "generation (MWh)": 1305.36 }, "geometry": { "type": "Point", "coordinates": [ 76.87618305, 31.3821876 ] } },
{ "type": "Feature", "properties": { "name": "KADANA HPS", "sector": "HYDRO", "CO2_emission": 38.17152, "generation (MWh)": 1590.48 }, "geometry": { "type": "Point", "coordinates": [ 77.331960099753914, 31.785521913598245 ] } },
{ "type": "Feature", "properties": { "name": "KADRA HPS", "sector": "HYDRO", "CO2_emission": 44.58528, "generation (MWh)": 1857.72 }, "geometry": { "type": "Point", "coordinates": [ 77.704067917058865, 16.332605758503171 ] } },
{ "type": "Feature", "properties": { "name": "KAHALGAON TPS", "sector": "THERMAL", "CO2_emission": 73661.46366, "generation (MWh)": 75318.47 }, "geometry": { "type": "Point", "coordinates": [ 87.265595, 25.236903 ] } },
{ "type": "Feature", "properties": { "name": "KAIGA", "sector": "NUCLEAR", "CO2_emission": 409.15656, "generation (MWh)": 34096.38 }, "geometry": { "type": "Point", "coordinates": [ 74.438253548017244, 14.865741781007195 ] } },
{ "type": "Feature", "properties": { "name": "KAKATIYA TPS", "sector": "THERMAL", "CO2_emission": 34737.70914, "generation (MWh)": 35519.13 }, "geometry": { "type": "Point", "coordinates": [ 79.8271644, 18.3831934 ] } },
{ "type": "Feature", "properties": { "name": "KAKKAD HPS", "sector": "HYDRO", "CO2_emission": 24.35976, "generation (MWh)": 1014.99 }, "geometry": { "type": "Point", "coordinates": [ 75.915917621716162, 32.624130313145024 ] } },
{ "type": "Feature", "properties": { "name": "KAKRAPARA", "sector": "NUCLEAR", "CO2_emission": 239.32188, "generation (MWh)": 19943.49 }, "geometry": null },
{ "type": "Feature", "properties": { "name": "KALINADI HPS", "sector": "HYDRO", "CO2_emission": 368.89152, "generation (MWh)": 15370.48 }, "geometry": null },
{ "type": "Feature", "properties": { "name": "KALINADI SUPA HPS", "sector": "HYDRO", "CO2_emission": 58.72944, "generation (MWh)": 2447.06 }, "geometry": null },
{ "type": "Feature", "properties": { "name": "KALISINDH TPS", "sector": "THERMAL", "CO2_emission": 31203.09978, "generation (MWh)": 31905.01 }, "geometry": { "type": "Point", "coordinates": [ 76.100353, 24.5325129 ] } },
{ "type": "Feature", "properties": { "name": "KAMALANGA TPS", "sector": "THERMAL", "CO2_emission": 33151.52028, "generation (MWh)": 33897.26 }, "geometry": { "type": "Point", "coordinates": [ 85.266979, 20.870576 ] } },
{ "type": "Feature", "properties": { "name": "KAMENG HPS", "sector": "HYDRO", "CO2_emission": 222.08112, "generation (MWh)": 9253.38 }, "geometry": { "type": "Point", "coordinates": [ 72.668000406644524, 19.832946158682745 ] } },
{ "type": "Feature", "properties": { "name": "KARAIKAL CCPP", "sector": "THER (GT)", "CO2_emission": 556.1291, "generation (MWh)": 1163.45 }, "geometry": null },
{ "type": "Feature", "properties": { "name": "KARBI LANGPI HPS", "sector": "HYDRO", "CO2_emission": 43.15056, "generation (MWh)": 1797.94 }, "geometry": { "type": "Point", "coordinates": [ 73.97745, 34.1039654 ] } },
{ "type": "Feature", "properties": { "name": "KARCHAM WANGTOO HPS", "sector": "HYDRO", "CO2_emission": 500.4468, "generation (MWh)": 20851.95 }, "geometry": { "type": "Point", "coordinates": [ 78.014018, 31.54437595 ] } },
{ "type": "Feature", "properties": { "name": "KARUPPUR CCPP", "sector": "THER (GT)", "CO2_emission": 647.16898, "generation (MWh)": 1353.91 }, "geometry": null },
{ "type": "Feature", "properties": { "name": "KASAIPALLI TPP", "sector": "THERMAL", "CO2_emission": 6683.68134, "generation (MWh)": 6834.03 }, "geometry": { "type": "Point", "coordinates": [ 82.5549, 22.38895 ] } },
{ "type": "Feature", "properties": { "name": "KASHANG INTEGRATED HEP", "sector": "HYDRO", "CO2_emission": 17.36232, "generation (MWh)": 723.43 }, "geometry": null },
{ "type": "Feature", "properties": { "name": "KASHIPUR CCPP", "sector": "THER (GT)", "CO2_emission": 1305.74304, "generation (MWh)": 2731.68 }, "geometry": { "type": "Point", "coordinates": [ 88.441865223689916, 27.002319554799506 ] } },
{ "type": "Feature", "properties": { "name": "KATHALGURI CCPP", "sector": "THER (GT)", "CO2_emission": 3910.64228, "generation (MWh)": 8181.26 }, "geometry": null },
{ "type": "Feature", "properties": { "name": "KAWAI TPS", "sector": "THERMAL", "CO2_emission": 37803.87606, "generation (MWh)": 38654.27 }, "geometry": { "type": "Point", "coordinates": [ 76.737144, 24.777997 ] } },
{ "type": "Feature", "properties": { "name": "KAWAS CCPP", "sector": "THER (GT)", "CO2_emission": 1728.85908, "generation (MWh)": 3616.86 }, "geometry": { "type": "Point", "coordinates": [ 77.704067917058865, 16.332605758503171 ] } },
{ "type": "Feature", "properties": { "name": "KHAMBARKHERA TPS", "sector": "THERMAL", "CO2_emission": 1015.33026, "generation (MWh)": 1038.17 }, "geometry": { "type": "Point", "coordinates": [ 80.8, 27.9 ] } },
{ "type": "Feature", "properties": { "name": "KHAPARKHEDA TPS", "sector": "THERMAL", "CO2_emission": 36539.85018, "generation (MWh)": 37361.81 }, "geometry": { "type": "Point", "coordinates": [ 79.116, 21.2818 ] } },
{ "type": "Feature", "properties": { "name": "KHARA HPS", "sector": "HYDRO", "CO2_emission": 38.54232, "generation (MWh)": 1605.93 }, "geometry": { "type": "Point", "coordinates": [ 74.896935450000015, 34.26739945 ] } },
{ "type": "Feature", "properties": { "name": "KHARGONE STPP", "sector": "THERMAL", "CO2_emission": 22820.7009, "generation (MWh)": 23334.05 }, "geometry": { "type": "Point", "coordinates": [ 75.851943, 22.065169 ] } },
{ "type": "Feature", "properties": { "name": "KHATIMA HPS", "sector": "HYDRO", "CO2_emission": 26.40864, "generation (MWh)": 1100.36 }, "geometry": null },
{ "type": "Feature", "properties": { "name": "KHODRI HPS", "sector": "HYDRO", "CO2_emission": 47.02152, "generation (MWh)": 1959.23 }, "geometry": { "type": "Point", "coordinates": [ 72.970313382624497, 18.881512434811217 ] } },
{ "type": "Feature", "properties": { "name": "KHONDONG HPS", "sector": "HYDRO", "CO2_emission": 13.22208, "generation (MWh)": 550.92 }, "geometry": null },
{ "type": "Feature", "properties": { "name": "KHOPOLI HPS", "sector": "HYDRO", "CO2_emission": 39.62544, "generation (MWh)": 1651.06 }, "geometry": { "type": "Point", "coordinates": [ 77.704025588486047, 8.174025974034926 ] } },
{ "type": "Feature", "properties": { "name": "KISHANGANGA HPS", "sector": "HYDRO", "CO2_emission": 145.77696, "generation (MWh)": 6074.04 }, "geometry": { "type": "Point", "coordinates": [ 74.6448791, 34.4635286 ] } },
{ "type": "Feature", "properties": { "name": "KODARMA TPP", "sector": "THERMAL", "CO2_emission": 33670.20258, "generation (MWh)": 34427.61 }, "geometry": { "type": "Point", "coordinates": [ 85.561899, 24.391534 ] } },
{ "type": "Feature", "properties": { "name": "KODASALI HPS", "sector": "HYDRO", "CO2_emission": 43.97376, "generation (MWh)": 1832.24 }, "geometry": { "type": "Point", "coordinates": [ 74.196864398772959, 34.151251668259391 ] } },
{ "type": "Feature", "properties": { "name": "KODAYAR-I HPS", "sector": "HYDRO", "CO2_emission": 20.5368, "generation (MWh)": 855.7 }, "geometry": null },
{ "type": "Feature", "properties": { "name": "KODAYAR-II HPS", "sector": "HYDRO", "CO2_emission": 6.37152, "generation (MWh)": 265.48 }, "geometry": null },
{ "type": "Feature", "properties": { "name": "KOLAGHAT TPS", "sector": "THERMAL", "CO2_emission": 18442.76214, "generation (MWh)": 18857.63 }, "geometry": { "type": "Point", "coordinates": [ 87.870984, 22.416565 ] } },
{ "type": "Feature", "properties": { "name": "KOLDAM", "sector": "HYDRO", "CO2_emission": 356.68368, "generation (MWh)": 14861.82 }, "geometry": { "type": "Point", "coordinates": [ 76.87618305, 31.3821876 ] } },
{ "type": "Feature", "properties": { "name": "KONDAPALLI CCPP", "sector": "THER (GT)", "CO2_emission": 1016.54826, "generation (MWh)": 2126.67 }, "geometry": { "type": "Point", "coordinates": [ 80.552226166807586, 16.639637252880593 ] } },
{ "type": "Feature", "properties": { "name": "KOPILI HPS", "sector": "HYDRO", "CO2_emission": 26.06256, "generation (MWh)": 1085.94 }, "geometry": { "type": "Point", "coordinates": [ 74.0688891, 34.1141588 ] } },
{ "type": "Feature", "properties": { "name": "KORADI TPS", "sector": "THERMAL", "CO2_emission": 52804.43028, "generation (MWh)": 53992.26 }, "geometry": { "type": "Point", "coordinates": [ 79.0919495, 21.2359824 ] } },
{ "type": "Feature", "properties": { "name": "KORBA-III", "sector": "THERMAL", "CO2_emission": 2302.20222, "generation (MWh)": 2353.99 }, "geometry": { "type": "Point", "coordinates": [ 82.6818961, 22.3874221 ] } },
{ "type": "Feature", "properties": { "name": "KORBA STPS", "sector": "THERMAL", "CO2_emission": 98320.21776, "generation (MWh)": 100531.92 }, "geometry": { "type": "Point", "coordinates": [ 82.6818961, 22.3874221 ] } },
{ "type": "Feature", "properties": { "name": "KORBA-WEST TPS", "sector": "THERMAL", "CO2_emission": 43415.50314, "generation (MWh)": 44392.13 }, "geometry": { "type": "Point", "coordinates": [ 82.6818961, 22.3874221 ] } },
{ "type": "Feature", "properties": { "name": "KOTA TPS", "sector": "THERMAL", "CO2_emission": 33880.854, "generation (MWh)": 34643.0 }, "geometry": { "type": "Point", "coordinates": [ 75.883521, 25.128632 ] } },
{ "type": "Feature", "properties": { "name": "KOTESHWAR HPS", "sector": "HYDRO", "CO2_emission": 143.022, "generation (MWh)": 5959.25 }, "geometry": { "type": "Point", "coordinates": [ 78.498906121687853, 30.260067265542105 ] } },
{ "type": "Feature", "properties": { "name": "KOTHAGUDEM TPS", "sector": "THERMAL", "CO2_emission": 2888.02422, "generation (MWh)": 2952.99 }, "geometry": { "type": "Point", "coordinates": [ 80.69355, 17.6219 ] } },
{ "type": "Feature", "properties": { "name": "KOTHAGUDEM TPS (NEW)", "sector": "THERMAL", "CO2_emission": 32127.8379, "generation (MWh)": 32850.55 }, "geometry": { "type": "Point", "coordinates": [ 80.69355, 17.6219 ] } },
{ "type": "Feature", "properties": { "name": "KOTHAGUDEM TPS (STAGE-7)", "sector": "THERMAL", "CO2_emission": 24805.0629, "generation (MWh)": 25363.05 }, "geometry": { "type": "Point", "coordinates": [ 80.69355, 17.6219 ] } },
{ "type": "Feature", "properties": { "name": "KOTLA HPS", "sector": "HYDRO", "CO2_emission": 71.7276, "generation (MWh)": 2988.65 }, "geometry": { "type": "Point", "coordinates": [ 73.97745, 34.1039654 ] } },
{ "type": "Feature", "properties": { "name": "KOVIKALPAL CCPP", "sector": "THER (GT)", "CO2_emission": 422.39426, "generation (MWh)": 883.67 }, "geometry": null },
{ "type": "Feature", "properties": { "name": "KOYNA DPH HPS", "sector": "HYDRO", "CO2_emission": 17.49048, "generation (MWh)": 728.77 }, "geometry": { "type": "Point", "coordinates": [ 78.371918473932965, 25.100223702015537 ] } },
{ "type": "Feature", "properties": { "name": "KOYNA-I&II HPS", "sector": "HYDRO", "CO2_emission": 136.24152, "generation (MWh)": 5676.73 }, "geometry": { "type": "Point", "coordinates": [ 76.16355893709428, 22.245137864256652 ] } },
{ "type": "Feature", "properties": { "name": "KOYNA-III HPS", "sector": "HYDRO", "CO2_emission": 71.51448, "generation (MWh)": 2979.77 }, "geometry": { "type": "Point", "coordinates": [ 77.704067917058865, 16.332605758503171 ] } },
{ "type": "Feature", "properties": { "name": "KOYNA-IV HPS", "sector": "HYDRO", "CO2_emission": 160.97616, "generation (MWh)": 6707.34 }, "geometry": { "type": "Point", "coordinates": [ 78.371918473932965, 25.100223702015537 ] } },
{ "type": "Feature", "properties": { "name": "KOZHIKODE DG", "sector": "THER (DG)", "CO2_emission": 24.23484, "generation (MWh)": 24.78 }, "geometry": null },
{ "type": "Feature", "properties": { "name": "KUDANKULAM", "sector": "NUCLEAR", "CO2_emission": 731.42016, "generation (MWh)": 60951.68 }, "geometry": { "type": "Point", "coordinates": [ 77.704025588486047, 8.174025974034926 ] } },
{ "type": "Feature", "properties": { "name": "KUDGI STPP", "sector": "THERMAL", "CO2_emission": 38612.78964, "generation (MWh)": 39481.38 }, "geometry": { "type": "Point", "coordinates": [ 75.834632, 16.499546 ] } },
{ "type": "Feature", "properties": { "name": "KULHAL HPS", "sector": "HYDRO", "CO2_emission": 17.38176, "generation (MWh)": 724.24 }, "geometry": { "type": "Point", "coordinates": [ 78.014018, 31.54437595 ] } },
{ "type": "Feature", "properties": { "name": "KUNDAH-I HPS", "sector": "HYDRO", "CO2_emission": 30.75096, "generation (MWh)": 1281.29 }, "geometry": null },
{ "type": "Feature", "properties": { "name": "KUNDAH-II HPS", "sector": "HYDRO", "CO2_emission": 81.528, "generation (MWh)": 3397.0 }, "geometry": null },
{ "type": "Feature", "properties": { "name": "KUNDAH-III HPS", "sector": "HYDRO", "CO2_emission": 50.10576, "generation (MWh)": 2087.74 }, "geometry": null },
{ "type": "Feature", "properties": { "name": "KUNDAH-IV HPS", "sector": "HYDRO", "CO2_emission": 17.4396, "generation (MWh)": 726.65 }, "geometry": null },
{ "type": "Feature", "properties": { "name": "KUNDAH-V HPS", "sector": "HYDRO", "CO2_emission": 7.44552, "generation (MWh)": 310.23 }, "geometry": null },
{ "type": "Feature", "properties": { "name": "KUNDARKI TPS", "sector": "THERMAL", "CO2_emission": 1233.62964, "generation (MWh)": 1261.38 }, "geometry": { "type": "Point", "coordinates": [ 82.23, 27.03 ] } },
{ "type": "Feature", "properties": { "name": "KUTCH LIG. TPS", "sector": "THERMAL", "CO2_emission": 3303.86982, "generation (MWh)": 3378.19 }, "geometry": { "type": "Point", "coordinates": [ 68.784128, 23.663934 ] } },
{ "type": "Feature", "properties": { "name": "KUTTALAM CCPP", "sector": "THER (GT)", "CO2_emission": 1018.21648, "generation (MWh)": 2130.16 }, "geometry": null },
{ "type": "Feature", "properties": { "name": "KUTTIYADI ADDL EXTN", "sector": "HYDRO", "CO2_emission": 26.45304, "generation (MWh)": 1102.21 }, "geometry": { "type": "Point", "coordinates": [ 77.331960099753914, 31.785521913598245 ] } },
{ "type": "Feature", "properties": { "name": "KUTTIYADI ADDL. EXTN", "sector": "HYDRO", "CO2_emission": 14.9736, "generation (MWh)": 623.9 }, "geometry": { "type": "Point", "coordinates": [ 77.704067917058865, 16.332605758503171 ] } },
{ "type": "Feature", "properties": { "name": "KUTTIYADI EXTN HPS", "sector": "HYDRO", "CO2_emission": 11.23296, "generation (MWh)": 468.04 }, "geometry": { "type": "Point", "coordinates": [ 75.915917621716162, 32.624130313145024 ] } },
{ "type": "Feature", "properties": { "name": "KUTTIYADI EXTN. HPS", "sector": "HYDRO", "CO2_emission": 5.418, "generation (MWh)": 225.75 }, "geometry": { "type": "Point", "coordinates": [ 72.668000406644524, 19.832946158682745 ] } },
{ "type": "Feature", "properties": { "name": "KUTTIYADI HPS", "sector": "HYDRO", "CO2_emission": 22.46592, "generation (MWh)": 936.08 }, "geometry": { "type": "Point", "coordinates": [ 75.899082153987308, 11.548462971041408 ] } },
{ "type": "Feature", "properties": { "name": "KYRDEMKULAI HPS", "sector": "HYDRO", "CO2_emission": 15.38424, "generation (MWh)": 641.01 }, "geometry": null },
{ "type": "Feature", "properties": { "name": "LAKSHDWEEP DG", "sector": "THER (DG)", "CO2_emission": 49.5846, "generation (MWh)": 50.7 }, "geometry": null },
{ "type": "Feature", "properties": { "name": "LAKWA GT", "sector": "THER (GT)", "CO2_emission": 1026.9352, "generation (MWh)": 2148.4 }, "geometry": null },
{ "type": "Feature", "properties": { "name": "LAKWA REPLACEMENT POWER", "sector": "THER (GT)", "CO2_emission": 6.14708, "generation (MWh)": 12.86 }, "geometry": null },
{ "type": "Feature", "properties": { "name": "LAKWA REPLACEMENT POWER PROJECT", "sector": "THER (GT)", "CO2_emission": 1144.71918, "generation (MWh)": 2394.81 }, "geometry": null },
{ "type": "Feature", "properties": { "name": "LALITPUR TPS", "sector": "THERMAL", "CO2_emission": 44449.66968, "generation (MWh)": 45449.56 }, "geometry": { "type": "Point", "coordinates": [ 78.646944, 24.795833 ] } },
{ "type": "Feature", "properties": { "name": "LARA TPP", "sector": "THERMAL", "CO2_emission": 39809.43132, "generation (MWh)": 40704.94 }, "geometry": { "type": "Point", "coordinates": [ 83.457545, 21.757661 ] } },
{ "type": "Feature", "properties": { "name": "LARJI HPS", "sector": "HYDRO", "CO2_emission": 64.08744, "generation (MWh)": 2670.31 }, "geometry": null },
{ "type": "Feature", "properties": { "name": "LIGANAMAKKI HPS", "sector": "HYDRO", "CO2_emission": 29.30496, "generation (MWh)": 1221.04 }, "geometry": { "type": "Point", "coordinates": [ 74.6448791, 34.4635286 ] } },
{ "type": "Feature", "properties": { "name": "LOKTAK HPS", "sector": "HYDRO", "CO2_emission": 51.43344, "generation (MWh)": 2143.06 }, "geometry": { "type": "Point", "coordinates": [ 80.552226166807586, 16.639637252880593 ] } },
{ "type": "Feature", "properties": { "name": "LOWER JHELUM HPS", "sector": "HYDRO", "CO2_emission": 54.33672, "generation (MWh)": 2264.03 }, "geometry": { "type": "Point", "coordinates": [ 74.196864398772959, 34.151251668259391 ] } },
{ "type": "Feature", "properties": { "name": "LOWER JURALA HPS", "sector": "HYDRO", "CO2_emission": 39.21768, "generation (MWh)": 1634.07 }, "geometry": { "type": "Point", "coordinates": [ 77.704067917058865, 16.332605758503171 ] } },
{ "type": "Feature", "properties": { "name": "LOWER METTUR-I HPS", "sector": "HYDRO", "CO2_emission": 9.06504, "generation (MWh)": 377.71 }, "geometry": null },
{ "type": "Feature", "properties": { "name": "LOWER METTUR-II HPS", "sector": "HYDRO", "CO2_emission": 8.74056, "generation (MWh)": 364.19 }, "geometry": null },
{ "type": "Feature", "properties": { "name": "LOWER METTUR-III HPS", "sector": "HYDRO", "CO2_emission": 8.25624, "generation (MWh)": 344.01 }, "geometry": null },
{ "type": "Feature", "properties": { "name": "LOWER METTUR-IV HPS", "sector": "HYDRO", "CO2_emission": 6.97176, "generation (MWh)": 290.49 }, "geometry": null },
{ "type": "Feature", "properties": { "name": "LOWER PERIYAR HPS", "sector": "HYDRO", "CO2_emission": 70.1412, "generation (MWh)": 2922.55 }, "geometry": { "type": "Point", "coordinates": [ 76.853652123140932, 10.01753099086536 ] } },
{ "type": "Feature", "properties": { "name": "LOWER SILERU HPS", "sector": "HYDRO", "CO2_emission": 123.17568, "generation (MWh)": 5132.32 }, "geometry": { "type": "Point", "coordinates": [ 81.659276147905572, 17.870266670850153 ] } },
{ "type": "Feature", "properties": { "name": "MACHKUND HPS", "sector": "HYDRO", "CO2_emission": 79.3644, "generation (MWh)": 3306.85 }, "geometry": { "type": "Point", "coordinates": [ 82.440991199999985, 18.50840635 ] } },
{ "type": "Feature", "properties": { "name": "MADHIKHERA HPS", "sector": "HYDRO", "CO2_emission": 14.84808, "generation (MWh)": 618.67 }, "geometry": { "type": "Point", "coordinates": [ 88.441865223689916, 27.002319554799506 ] } },
{ "type": "Feature", "properties": { "name": "MADRAS A.P.S", "sector": "NUCLEAR", "CO2_emission": 90.1728, "generation (MWh)": 7514.4 }, "geometry": { "type": "Point", "coordinates": [ 74.896935450000015, 34.26739945 ] } },
{ "type": "Feature", "properties": { "name": "MAHADEV PRASAD STPP", "sector": "THERMAL", "CO2_emission": 16044.49098, "generation (MWh)": 16405.41 }, "geometry": { "type": "Point", "coordinates": [ 86.061294, 22.836504 ] } },
{ "type": "Feature", "properties": { "name": "MAHAN TPP", "sector": "THERMAL", "CO2_emission": 18406.37076, "generation (MWh)": 18820.42 }, "geometry": { "type": "Point", "coordinates": [ 82.437197, 24.220902 ] } },
{ "type": "Feature", "properties": { "name": "MAHATMA GANDHI TPS", "sector": "THERMAL", "CO2_emission": 34815.95892, "generation (MWh)": 35599.14 }, "geometry": { "type": "Point", "coordinates": [ 76.352534, 28.488143 ] } },
{ "type": "Feature", "properties": { "name": "MAHI BAJAJ-I HPS", "sector": "HYDRO", "CO2_emission": 18.85632, "generation (MWh)": 785.68 }, "geometry": { "type": "Point", "coordinates": [ 76.16355893709428, 22.245137864256652 ] } },
{ "type": "Feature", "properties": { "name": "MAHI BAJAJ-II HPS", "sector": "HYDRO", "CO2_emission": 6.56904, "generation (MWh)": 273.71 }, "geometry": { "type": "Point", "coordinates": [ 77.331960099753914, 31.785521913598245 ] } },
{ "type": "Feature", "properties": { "name": "MAITHON HPS", "sector": "HYDRO", "CO2_emission": 15.24168, "generation (MWh)": 635.07 }, "geometry": { "type": "Point", "coordinates": [ 78.498906121687853, 30.260067265542105 ] } },
{ "type": "Feature", "properties": { "name": "MAITHON RB TPP", "sector": "THERMAL", "CO2_emission": 34829.05434, "generation (MWh)": 35612.53 }, "geometry": { "type": "Point", "coordinates": [ 86.76, 23.8209 ] } },
{ "type": "Feature", "properties": { "name": "MALANA HPS", "sector": "HYDRO", "CO2_emission": 37.33176, "generation (MWh)": 1555.49 }, "geometry": null },
{ "type": "Feature", "properties": { "name": "MALANA-II HPS", "sector": "HYDRO", "CO2_emission": 38.33112, "generation (MWh)": 1597.13 }, "geometry": null },
{ "type": "Feature", "properties": { "name": "MANERI BHALI - I HPS", "sector": "HYDRO", "CO2_emission": 15.17184, "generation (MWh)": 632.16 }, "geometry": { "type": "Point", "coordinates": [ 78.444809858549021, 30.726188007725714 ] } },
{ "type": "Feature", "properties": { "name": "MANERI BHALI-I HPS", "sector": "HYDRO", "CO2_emission": 31.54728, "generation (MWh)": 1314.47 }, "geometry": { "type": "Point", "coordinates": [ 78.444809858549021, 30.726188007725714 ] } },
{ "type": "Feature", "properties": { "name": "MANERI BHALI - II HPS", "sector": "HYDRO", "CO2_emission": 59.11944, "generation (MWh)": 2463.31 }, "geometry": { "type": "Point", "coordinates": [ 78.319162769093694, 30.607389464079414 ] } },
{ "type": "Feature", "properties": { "name": "MANERI BHALI-II HPS", "sector": "HYDRO", "CO2_emission": 93.798, "generation (MWh)": 3908.25 }, "geometry": { "type": "Point", "coordinates": [ 78.319162769093694, 30.607389464079414 ] } },
{ "type": "Feature", "properties": { "name": "MAQSOODPUR TPS", "sector": "THERMAL", "CO2_emission": 1083.8685, "generation (MWh)": 1108.25 }, "geometry": { "type": "Point", "coordinates": [ 79.94, 27.81 ] } },
{ "type": "Feature", "properties": { "name": "MARWA TPS", "sector": "THERMAL", "CO2_emission": 23982.14436, "generation (MWh)": 24521.62 }, "geometry": { "type": "Point", "coordinates": [ 82.602189, 22.070801 ] } },
{ "type": "Feature", "properties": { "name": "MATATILA HPS", "sector": "HYDRO", "CO2_emission": 12.03, "generation (MWh)": 501.25 }, "geometry": { "type": "Point", "coordinates": [ 78.371918473932965, 25.100223702015537 ] } },
{ "type": "Feature", "properties": { "name": "MAUDA TPS", "sector": "THERMAL", "CO2_emission": 57423.14286, "generation (MWh)": 58714.87 }, "geometry": { "type": "Point", "coordinates": [ 79.396541, 21.18074 ] } },
{ "type": "Feature", "properties": { "name": "MEJA STPP", "sector": "THERMAL", "CO2_emission": 25765.2144, "generation (MWh)": 26344.8 }, "geometry": { "type": "Point", "coordinates": [ 81.940096, 25.145867 ] } },
{ "type": "Feature", "properties": { "name": "MEJIA TPS", "sector": "THERMAL", "CO2_emission": 68869.32234, "generation (MWh)": 70418.53 }, "geometry": { "type": "Point", "coordinates": [ 87.1311, 23.4639 ] } },
{ "type": "Feature", "properties": { "name": "METTUR DAM HPS", "sector": "HYDRO", "CO2_emission": 16.91064, "generation (MWh)": 704.61 }, "geometry": { "type": "Point", "coordinates": [ 77.809621858725592, 11.800696983955026 ] } },
{ "type": "Feature", "properties": { "name": "METTUR TPS", "sector": "THERMAL", "CO2_emission": 23280.57606, "generation (MWh)": 23804.27 }, "geometry": { "type": "Point", "coordinates": [ 77.919073, 11.814008 ] } },
{ "type": "Feature", "properties": { "name": "METTUR TPS - II", "sector": "THERMAL", "CO2_emission": 12764.57238, "generation (MWh)": 13051.71 }, "geometry": { "type": "Point", "coordinates": [ 77.919073, 11.814008 ] } },
{ "type": "Feature", "properties": { "name": "METTUR TUNNEL HPS", "sector": "HYDRO", "CO2_emission": 49.16712, "generation (MWh)": 2048.63 }, "geometry": { "type": "Point", "coordinates": [ 77.810761191701928, 11.797971936251155 ] } },
{ "type": "Feature", "properties": { "name": "MONARCHAK CCPP", "sector": "THER (GT)", "CO2_emission": 1582.9687, "generation (MWh)": 3311.65 }, "geometry": null },
{ "type": "Feature", "properties": { "name": "MOYAR HPS", "sector": "HYDRO", "CO2_emission": 13.41096, "generation (MWh)": 558.79 }, "geometry": { "type": "Point", "coordinates": [ 75.899082153987308, 11.548462971041408 ] } },
{ "type": "Feature", "properties": { "name": "MUKERIAN-I HPS", "sector": "HYDRO", "CO2_emission": 123.1308, "generation (MWh)": 5130.45 }, "geometry": { "type": "Point", "coordinates": [ 75.83581322823369, 31.955040486679323 ] } },
{ "type": "Feature", "properties": { "name": "MUKERIAN-II HPS", "sector": "HYDRO", "CO2_emission": 4.96872, "generation (MWh)": 207.03 }, "geometry": { "type": "Point", "coordinates": [ 75.7406414, 31.9635936 ] } },
{ "type": "Feature", "properties": { "name": "MUKERIAN-III HPS", "sector": "HYDRO", "CO2_emission": 7.4544, "generation (MWh)": 310.6 }, "geometry": { "type": "Point", "coordinates": [ 75.71293925, 31.95475325 ] } },
{ "type": "Feature", "properties": { "name": "MUKERIAN-IV HPS", "sector": "HYDRO", "CO2_emission": 6.50544, "generation (MWh)": 271.06 }, "geometry": { "type": "Point", "coordinates": [ 75.665178250000025, 31.8903792 ] } },
{ "type": "Feature", "properties": { "name": "MUNDRA TPS", "sector": "THERMAL", "CO2_emission": 37804.5411, "generation (MWh)": 38654.95 }, "geometry": { "type": "Point", "coordinates": [ 69.5511094, 22.8235596 ] } },
{ "type": "Feature", "properties": { "name": "MUNDRA TPS-I & II", "sector": "THERMAL", "CO2_emission": 28290.09744, "generation (MWh)": 28926.48 }, "geometry": { "type": "Point", "coordinates": [ 69.5511094, 22.8235596 ] } },
{ "type": "Feature", "properties": { "name": "MUNDRA TPS-III", "sector": "THERMAL", "CO2_emission": 20815.83024, "generation (MWh)": 21284.08 }, "geometry": { "type": "Point", "coordinates": [ 69.5511094, 22.8235596 ] } },
{ "type": "Feature", "properties": { "name": "MUNDRA UMTPP", "sector": "THERMAL", "CO2_emission": 91345.7379, "generation (MWh)": 93400.55 }, "geometry": { "type": "Point", "coordinates": [ 69.5511094, 22.8235596 ] } },
{ "type": "Feature", "properties": { "name": "MUNIRABAD HPS", "sector": "HYDRO", "CO2_emission": 10.48704, "generation (MWh)": 436.96 }, "geometry": { "type": "Point", "coordinates": [ 76.328666959013802, 15.266683177850227 ] } },
{ "type": "Feature", "properties": { "name": "MUTHIARA TPP", "sector": "THERMAL", "CO2_emission": 13541.44668, "generation (MWh)": 13846.06 }, "geometry": { "type": "Point", "coordinates": [ 78.144965, 8.912716 ] } },
{ "type": "Feature", "properties": { "name": "MUZAFFARPUR TPS", "sector": "THERMAL", "CO2_emission": 13724.84124, "generation (MWh)": 14033.58 }, "geometry": { "type": "Point", "coordinates": [ 85.303302, 26.194771 ] } },
{ "type": "Feature", "properties": { "name": "MYNTDU(LESHKA) St-1 HPS", "sector": "HYDRO", "CO2_emission": 44.52816, "generation (MWh)": 1855.34 }, "geometry": { "type": "Point", "coordinates": [ 77.779324481842494, 11.727509003265233 ] } },
{ "type": "Feature", "properties": { "name": "NABINAGAR STPP", "sector": "THERMAL", "CO2_emission": 37879.71018, "generation (MWh)": 38731.81 }, "geometry": { "type": "Point", "coordinates": [ 84.158025, 24.776 ] } },
{ "type": "Feature", "properties": { "name": "NABI NAGAR TPP", "sector": "THERMAL", "CO2_emission": 8177.85018, "generation (MWh)": 8361.81 }, "geometry": { "type": "Point", "coordinates": [ 84.158025, 24.776 ] } },
{ "type": "Feature", "properties": { "name": "NABINAGAR TPP", "sector": "THERMAL", "CO2_emission": 18970.9506, "generation (MWh)": 19397.7 }, "geometry": { "type": "Point", "coordinates": [ 84.158025, 24.776 ] } },
{ "type": "Feature", "properties": { "name": "NAGARJUN SGR HPS", "sector": "HYDRO", "CO2_emission": 188.77464, "generation (MWh)": 7865.61 }, "geometry": { "type": "Point", "coordinates": [ 72.970313382624497, 18.881512434811217 ] } },
{ "type": "Feature", "properties": { "name": "NAGARJUN SGR LBC HPS", "sector": "HYDRO", "CO2_emission": 11.68896, "generation (MWh)": 487.04 }, "geometry": { "type": "Point", "coordinates": [ 77.704067917058865, 16.332605758503171 ] } },
{ "type": "Feature", "properties": { "name": "NAGARJUN SGR RBC HPS", "sector": "HYDRO", "CO2_emission": 20.37264, "generation (MWh)": 848.86 }, "geometry": { "type": "Point", "coordinates": [ 75.915917621716162, 32.624130313145024 ] } },
{ "type": "Feature", "properties": { "name": "NAGARJUN SGR TPD", "sector": "HYDRO", "CO2_emission": 9.13632, "generation (MWh)": 380.68 }, "geometry": { "type": "Point", "coordinates": [ 72.668000406644524, 19.832946158682745 ] } },
{ "type": "Feature", "properties": { "name": "NALCO IMP", "sector": "THERMAL", "CO2_emission": 613.51896, "generation (MWh)": 627.32 }, "geometry": { "type": "Point", "coordinates": [ 85.1902199, 20.8490264 ] } },
{ "type": "Feature", "properties": { "name": "NAMRUP CCPP", "sector": "THER (GT)", "CO2_emission": 1142.6829, "generation (MWh)": 2390.55 }, "geometry": null },
{ "type": "Feature", "properties": { "name": "NARIAMANGLAM HPS", "sector": "HYDRO", "CO2_emission": 31.01016, "generation (MWh)": 1292.09 }, "geometry": null },
{ "type": "Feature", "properties": { "name": "NARORA A.P.S", "sector": "NUCLEAR", "CO2_emission": 189.61068, "generation (MWh)": 15800.89 }, "geometry": { "type": "Point", "coordinates": [ 74.0688891, 34.1141588 ] } },
{ "type": "Feature", "properties": { "name": "NASIK TPS", "sector": "THERMAL", "CO2_emission": 9981.0768, "generation (MWh)": 10205.6 }, "geometry": { "type": "Point", "coordinates": [ 73.8920556, 19.9814589 ] } },
{ "type": "Feature", "properties": { "name": "NATHPA JHAKRI HPS", "sector": "HYDRO", "CO2_emission": 814.26696, "generation (MWh)": 33927.79 }, "geometry": { "type": "Point", "coordinates": [ 77.708487358083403, 31.494590129881239 ] } },
{ "type": "Feature", "properties": { "name": "NAWAPARA TPP", "sector": "THERMAL", "CO2_emission": 10196.1879, "generation (MWh)": 10425.55 }, "geometry": { "type": "Point", "coordinates": [ 83.128556, 21.906738 ] } },
{ "type": "Feature", "properties": { "name": "NEW UMTRU HPS", "sector": "HYDRO", "CO2_emission": 21.95904, "generation (MWh)": 914.96 }, "geometry": null },
{ "type": "Feature", "properties": { "name": "NEYVELI ( EXT) TPS", "sector": "THERMAL", "CO2_emission": 14456.17008, "generation (MWh)": 14781.36 }, "geometry": { "type": "Point", "coordinates": [ 79.4445033, 11.5464825 ] } },
{ "type": "Feature", "properties": { "name": "NEYVELI NEW TPP", "sector": "THERMAL", "CO2_emission": 21511.19802, "generation (MWh)": 21995.09 }, "geometry": { "type": "Point", "coordinates": [ 79.4445033, 11.5464825 ] } },
{ "type": "Feature", "properties": { "name": "NEYVELI TPS- I", "sector": "THERMAL", "CO2_emission": 3506.01264, "generation (MWh)": 3584.88 }, "geometry": { "type": "Point", "coordinates": [ 79.4445033, 11.5464825 ] } },
{ "type": "Feature", "properties": { "name": "NEYVELI TPS-II", "sector": "THERMAL", "CO2_emission": 39131.90226, "generation (MWh)": 40012.17 }, "geometry": { "type": "Point", "coordinates": [ 79.4445033, 11.5464825 ] } },
{ "type": "Feature", "properties": { "name": "NEYVELI TPS-II EXP", "sector": "THERMAL", "CO2_emission": 9352.86828, "generation (MWh)": 9563.26 }, "geometry": { "type": "Point", "coordinates": [ 79.4445033, 11.5464825 ] } },
{ "type": "Feature", "properties": { "name": "NEYVELI TPS(Z)", "sector": "THERMAL", "CO2_emission": 6041.09622, "generation (MWh)": 6176.99 }, "geometry": { "type": "Point", "coordinates": [ 79.4445033, 11.5464825 ] } },
{ "type": "Feature", "properties": { "name": "NIGRI TPP", "sector": "THERMAL", "CO2_emission": 38321.17938, "generation (MWh)": 39183.21 }, "geometry": { "type": "Point", "coordinates": [ 81.904525, 24.14997 ] } },
{ "type": "Feature", "properties": { "name": "NIMMO BAZGO HPS", "sector": "HYDRO", "CO2_emission": 25.3008, "generation (MWh)": 1054.2 }, "geometry": { "type": "Point", "coordinates": [ 88.441865223689916, 27.002319554799506 ] } },
{ "type": "Feature", "properties": { "name": "NIWARI TPP", "sector": "THERMAL", "CO2_emission": 1304.58354, "generation (MWh)": 1333.93 }, "geometry": { "type": "Point", "coordinates": [ 78.731804, 22.95946 ] } },
{ "type": "Feature", "properties": { "name": "NORTH CHENNAI TPS", "sector": "THERMAL", "CO2_emission": 40410.98934, "generation (MWh)": 41320.03 }, "geometry": { "type": "Point", "coordinates": [ 80.327804, 13.253013 ] } },
{ "type": "Feature", "properties": { "name": "NORTH KARANPURA TPP", "sector": "THERMAL", "CO2_emission": 4534.63392, "generation (MWh)": 4636.64 }, "geometry": { "type": "Point", "coordinates": [ 85.012411, 23.850772 ] } },
{ "type": "Feature", "properties": { "name": "NTPL TUTICORIN TPP", "sector": "THERMAL", "CO2_emission": 12193.17588, "generation (MWh)": 12467.46 }, "geometry": { "type": "Point", "coordinates": [ 78.171083, 8.760363 ] } },
{ "type": "Feature", "properties": { "name": "OBRA HPS", "sector": "HYDRO", "CO2_emission": 28.06824, "generation (MWh)": 1169.51 }, "geometry": { "type": "Point", "coordinates": [ 73.97745, 34.1039654 ] } },
{ "type": "Feature", "properties": { "name": "OBRA TPS", "sector": "THERMAL", "CO2_emission": 22276.72752, "generation (MWh)": 22777.84 }, "geometry": { "type": "Point", "coordinates": [ 82.98, 24.4445 ] } },
{ "type": "Feature", "properties": { "name": "OMKARESHWAR HPS", "sector": "HYDRO", "CO2_emission": 159.6516, "generation (MWh)": 6652.15 }, "geometry": { "type": "Point", "coordinates": [ 76.16355893709428, 22.245137864256652 ] } },
{ "type": "Feature", "properties": { "name": "OP JINDAL TPS", "sector": "THERMAL", "CO2_emission": 23929.92894, "generation (MWh)": 24468.23 }, "geometry": { "type": "Point", "coordinates": [ 78.014018, 31.54437595 ] } },
{ "type": "Feature", "properties": { "name": "PAINAMPURAM TPP", "sector": "THERMAL", "CO2_emission": 43589.47956, "generation (MWh)": 44570.02 }, "geometry": { "type": "Point", "coordinates": [ 80.143086, 14.351195 ] } },
{ "type": "Feature", "properties": { "name": "PALLIVASAL HPS", "sector": "HYDRO", "CO2_emission": 17.36016, "generation (MWh)": 723.34 }, "geometry": { "type": "Point", "coordinates": [ 77.054892234262681, 10.031521015236132 ] } },
{ "type": "Feature", "properties": { "name": "PANCHET HPS", "sector": "HYDRO", "CO2_emission": 17.88744, "generation (MWh)": 745.31 }, "geometry": { "type": "Point", "coordinates": [ 77.756443098193728, 11.643589417814903 ] } },
{ "type": "Feature", "properties": { "name": "PANIPAT TPS", "sector": "THERMAL", "CO2_emission": 14141.15628, "generation (MWh)": 14459.26 }, "geometry": { "type": "Point", "coordinates": [ 76.8763161, 29.3975059 ] } },
{ "type": "Feature", "properties": { "name": "PANNIAR HPS", "sector": "HYDRO", "CO2_emission": 20.67984, "generation (MWh)": 861.66 }, "geometry": null },
{ "type": "Feature", "properties": { "name": "PAPANASAM HPS", "sector": "HYDRO", "CO2_emission": 14.95224, "generation (MWh)": 623.01 }, "geometry": null },
{ "type": "Feature", "properties": { "name": "PARAS TPS", "sector": "THERMAL", "CO2_emission": 14092.57902, "generation (MWh)": 14409.59 }, "geometry": { "type": "Point", "coordinates": [ 76.7948, 20.7147 ] } },
{ "type": "Feature", "properties": { "name": "PARBATI-III HPS", "sector": "HYDRO", "CO2_emission": 67.59696, "generation (MWh)": 2816.54 }, "geometry": { "type": "Point", "coordinates": [ 77.331960099753914, 31.785521913598245 ] } },
{ "type": "Feature", "properties": { "name": "PARE", "sector": "HYDRO", "CO2_emission": 55.49448, "generation (MWh)": 2312.27 }, "geometry": null },
{ "type": "Feature", "properties": { "name": "PARICHHA TPS", "sector": "THERMAL", "CO2_emission": 20784.15282, "generation (MWh)": 21251.69 }, "geometry": { "type": "Point", "coordinates": [ 78.757918, 25.513571 ] } },
{ "type": "Feature", "properties": { "name": "PARLI TPS", "sector": "THERMAL", "CO2_emission": 14700.50382, "generation (MWh)": 15031.19 }, "geometry": { "type": "Point", "coordinates": [ 76.5429497, 18.9075857 ] } },
{ "type": "Feature", "properties": { "name": "PARSON`S VALLEY HPS", "sector": "HYDRO", "CO2_emission": 4.20624, "generation (MWh)": 175.26 }, "geometry": null },
{ "type": "Feature", "properties": { "name": "PATHADI TPP", "sector": "THERMAL", "CO2_emission": 18094.20294, "generation (MWh)": 18501.23 }, "geometry": { "type": "Point", "coordinates": [ 83.231306, 21.987781 ] } },
{ "type": "Feature", "properties": { "name": "PEGUTHAN CCPP", "sector": "THER (GT)", "CO2_emission": 0.96078, "generation (MWh)": 2.01 }, "geometry": null },
{ "type": "Feature", "properties": { "name": "PENCH HPS", "sector": "HYDRO", "CO2_emission": 38.83824, "generation (MWh)": 1618.26 }, "geometry": { "type": "Point", "coordinates": [ 77.741981609087858, 11.575195827921501 ] } },
{ "type": "Feature", "properties": { "name": "PERIYAR HPS", "sector": "HYDRO", "CO2_emission": 68.23152, "generation (MWh)": 2842.98 }, "geometry": { "type": "Point", "coordinates": [ 77.70171485, 11.48545135 ] } },
{ "type": "Feature", "properties": { "name": "PIPAVAV CCPP", "sector": "THER (GT)", "CO2_emission": 1271.87196, "generation (MWh)": 2660.82 }, "geometry": { "type": "Point", "coordinates": [ 76.853652123140932, 10.01753099086536 ] } },
{ "type": "Feature", "properties": { "name": "P.NALLUR CCPP", "sector": "THER (GT)", "CO2_emission": 34.18178, "generation (MWh)": 71.51 }, "geometry": null },
{ "type": "Feature", "properties": { "name": "POCHAMPAD HPS", "sector": "HYDRO", "CO2_emission": 10.66968, "generation (MWh)": 444.57 }, "geometry": { "type": "Point", "coordinates": [ 78.344837538215018, 18.966719554588696 ] } },
{ "type": "Feature", "properties": { "name": "PONG H P S", "sector": "HYDRO", "CO2_emission": 71.56152, "generation (MWh)": 2981.73 }, "geometry": { "type": "Point", "coordinates": [ 74.896935450000015, 34.26739945 ] } },
{ "type": "Feature", "properties": { "name": "PONG HPS", "sector": "HYDRO", "CO2_emission": 106.53384, "generation (MWh)": 4438.91 }, "geometry": { "type": "Point", "coordinates": [ 74.6448791, 34.4635286 ] } },
{ "type": "Feature", "properties": { "name": "PORINGALKUTTU HPS", "sector": "HYDRO", "CO2_emission": 21.7644, "generation (MWh)": 906.85 }, "geometry": { "type": "Point", "coordinates": [ 80.552226166807586, 16.639637252880593 ] } },
{ "type": "Feature", "properties": { "name": "PRAGATI CCGT-III", "sector": "THER (GT)", "CO2_emission": 7506.07224, "generation (MWh)": 15703.08 }, "geometry": { "type": "Point", "coordinates": [ 77.071653740363502, 28.796656836599979 ] } },
{ "type": "Feature", "properties": { "name": "PRAGATI CCPP", "sector": "THER (GT)", "CO2_emission": 2946.8461, "generation (MWh)": 6164.95 }, "geometry": { "type": "Point", "coordinates": [ 81.659276147905572, 17.870266670850153 ] } },
{ "type": "Feature", "properties": { "name": "PRAYAGRAJ TPP", "sector": "THERMAL", "CO2_emission": 52998.49482, "generation (MWh)": 54190.69 }, "geometry": { "type": "Point", "coordinates": [ 81.65707021038385, 25.19710408619293 ] } },
{ "type": "Feature", "properties": { "name": "PRIYADARSHNI JURALA HPS", "sector": "HYDRO", "CO2_emission": 36.81072, "generation (MWh)": 1533.78 }, "geometry": { "type": "Point", "coordinates": [ 77.704067917058865, 16.332605758503171 ] } },
{ "type": "Feature", "properties": { "name": "PULICHINTALA HPS", "sector": "HYDRO", "CO2_emission": 27.26832, "generation (MWh)": 1136.18 }, "geometry": { "type": "Point", "coordinates": [ 80.052752301710711, 16.773921313162937 ] } },
{ "type": "Feature", "properties": { "name": "PURULIA PSS HPS", "sector": "HYDRO", "CO2_emission": 151.6752, "generation (MWh)": 6319.8 }, "geometry": { "type": "Point", "coordinates": [ 78.498906121687853, 30.260067265542105 ] } },
{ "type": "Feature", "properties": { "name": "PYKARA HPS", "sector": "HYDRO", "CO2_emission": 1.5864, "generation (MWh)": 66.1 }, "geometry": null },
{ "type": "Feature", "properties": { "name": "PYKARA ULTMATE HPS", "sector": "HYDRO", "CO2_emission": 42.04824, "generation (MWh)": 1752.01 }, "geometry": null },
{ "type": "Feature", "properties": { "name": "RAGHUNATHPUR TPP", "sector": "THERMAL", "CO2_emission": 27518.46522, "generation (MWh)": 28137.49 }, "geometry": { "type": "Point", "coordinates": [ 86.660703, 23.62191 ] } },
{ "type": "Feature", "properties": { "name": "RAICHUR TPS", "sector": "THERMAL", "CO2_emission": 31625.76204, "generation (MWh)": 32337.18 }, "geometry": { "type": "Point", "coordinates": [ 77.3422, 16.3532 ] } },
{ "type": "Feature", "properties": { "name": "RAIKHEDA TPP", "sector": "THERMAL", "CO2_emission": 31359.83406, "generation (MWh)": 32065.27 }, "geometry": { "type": "Point", "coordinates": [ 81.852474, 21.449918 ] } },
{ "type": "Feature", "properties": { "name": "RAJASTHAN A.P.S", "sector": "NUCLEAR", "CO2_emission": 422.72508, "generation (MWh)": 35227.09 }, "geometry": { "type": "Point", "coordinates": [ 82.440991199999985, 18.50840635 ] } },
{ "type": "Feature", "properties": { "name": "RAJGHAT HPS", "sector": "HYDRO", "CO2_emission": 12.14136, "generation (MWh)": 505.89 }, "geometry": { "type": "Point", "coordinates": [ 78.444809858549021, 30.726188007725714 ] } },
{ "type": "Feature", "properties": { "name": "RAJIV GANDHI TPS", "sector": "THERMAL", "CO2_emission": 16500.20964, "generation (MWh)": 16871.38 }, "geometry": { "type": "Point", "coordinates": [ 75.857538, 29.34698 ] } },
{ "type": "Feature", "properties": { "name": "RAJPURA TPP", "sector": "THERMAL", "CO2_emission": 46099.12536, "generation (MWh)": 47136.12 }, "geometry": { "type": "Point", "coordinates": [ 76.577593, 30.558963 ] } },
{ "type": "Feature", "properties": { "name": "RAMAGUNDEM - B TPS", "sector": "THERMAL", "CO2_emission": 686.98632, "generation (MWh)": 702.44 }, "geometry": { "type": "Point", "coordinates": [ 79.4721746, 18.7510273 ] } },
{ "type": "Feature", "properties": { "name": "RAMAGUNDEM-B TPS", "sector": "THERMAL", "CO2_emission": 809.51016, "generation (MWh)": 827.72 }, "geometry": { "type": "Point", "coordinates": [ 79.4721746, 18.7510273 ] } },
{ "type": "Feature", "properties": { "name": "RAMAGUNDEM STPS", "sector": "THERMAL", "CO2_emission": 80922.77136, "generation (MWh)": 82743.12 }, "geometry": { "type": "Point", "coordinates": [ 79.4721746, 18.7510273 ] } },
{ "type": "Feature", "properties": { "name": "RAMGANGA HPS", "sector": "HYDRO", "CO2_emission": 32.97, "generation (MWh)": 1373.75 }, "geometry": { "type": "Point", "coordinates": [ 78.757622, 29.516921 ] } },
{ "type": "Feature", "properties": { "name": "RAMGARH CCPP", "sector": "THER (GT)", "CO2_emission": 2288.12864, "generation (MWh)": 4786.88 }, "geometry": { "type": "Point", "coordinates": [ 78.319162769093694, 30.607389464079414 ] } },
{ "type": "Feature", "properties": { "name": "RAMMAM HPS", "sector": "HYDRO", "CO2_emission": 27.96408, "generation (MWh)": 1165.17 }, "geometry": null },
{ "type": "Feature", "properties": { "name": "RAMPUR HPS", "sector": "HYDRO", "CO2_emission": 228.3936, "generation (MWh)": 9516.4 }, "geometry": { "type": "Point", "coordinates": [ 78.444809858549021, 30.726188007725714 ] } },
{ "type": "Feature", "properties": { "name": "RANGANADI HPS", "sector": "HYDRO", "CO2_emission": 145.94952, "generation (MWh)": 6081.23 }, "geometry": { "type": "Point", "coordinates": [ 93.79245995, 27.2577482 ] } },
{ "type": "Feature", "properties": { "name": "RANGIT HPS", "sector": "HYDRO", "CO2_emission": 37.43952, "generation (MWh)": 1559.98 }, "geometry": null },
{ "type": "Feature", "properties": { "name": "RANJIT SAGAR HPS", "sector": "HYDRO", "CO2_emission": 193.3032, "generation (MWh)": 8054.3 }, "geometry": { "type": "Point", "coordinates": [ 75.731120161174616, 32.439812435409621 ] } },
{ "type": "Feature", "properties": { "name": "RATIJA TPS", "sector": "THERMAL", "CO2_emission": 2930.42052, "generation (MWh)": 2996.34 }, "geometry": { "type": "Point", "coordinates": [ 82.492776, 22.339994 ] } },
{ "type": "Feature", "properties": { "name": "RATNAGIRI CCPP", "sector": "THER (GT)", "CO2_emission": 6326.71718, "generation (MWh)": 13235.81 }, "geometry": { "type": "Point", "coordinates": [ 78.319162769093694, 30.607389464079414 ] } },
{ "type": "Feature", "properties": { "name": "RAYALASEEMA TPS", "sector": "THERMAL", "CO2_emission": 33697.32252, "generation (MWh)": 34455.34 }, "geometry": { "type": "Point", "coordinates": [ 78.459364, 14.697282 ] } },
{ "type": "Feature", "properties": { "name": "RENGALI HPS", "sector": "HYDRO", "CO2_emission": 94.7148, "generation (MWh)": 3946.45 }, "geometry": { "type": "Point", "coordinates": [ 77.809621858725592, 11.800696983955026 ] } },
{ "type": "Feature", "properties": { "name": "R. GANDHI CCPP (Liq.)", "sector": "THER (GT)", "CO2_emission": 49.40608, "generation (MWh)": 103.36 }, "geometry": { "type": "Point", "coordinates": [ 74.0688891, 34.1141588 ] } },
{ "type": "Feature", "properties": { "name": "RIHAND HPS", "sector": "HYDRO", "CO2_emission": 66.22392, "generation (MWh)": 2759.33 }, "geometry": null },
{ "type": "Feature", "properties": { "name": "RIHAND STPS", "sector": "THERMAL", "CO2_emission": 109893.35142, "generation (MWh)": 112365.39 }, "geometry": { "type": "Point", "coordinates": [ 82.7915, 24.027 ] } },
{ "type": "Feature", "properties": { "name": "ROKHIA GT", "sector": "THER (GT)", "CO2_emission": 796.87858, "generation (MWh)": 1667.11 }, "geometry": null },
{ "type": "Feature", "properties": { "name": "RONGNICHU HPS", "sector": "HYDRO", "CO2_emission": 24.44472, "generation (MWh)": 1018.53 }, "geometry": null },
{ "type": "Feature", "properties": { "name": "ROPAR TPS", "sector": "THERMAL", "CO2_emission": 10103.46372, "generation (MWh)": 10330.74 }, "geometry": { "type": "Point", "coordinates": [ 76.5845001, 31.0418094 ] } },
{ "type": "Feature", "properties": { "name": "ROSA TPP Ph-I", "sector": "THERMAL", "CO2_emission": 30828.516, "generation (MWh)": 31522.0 }, "geometry": { "type": "Point", "coordinates": [ 79.9371618, 27.8194455 ] } },
{ "type": "Feature", "properties": { "name": "R P SAGAR HPS", "sector": "HYDRO", "CO2_emission": 25.83624, "generation (MWh)": 1076.51 }, "geometry": { "type": "Point", "coordinates": [ 72.970313382624497, 18.881512434811217 ] } },
{ "type": "Feature", "properties": { "name": "SABARIGIRI HPS", "sector": "HYDRO", "CO2_emission": 159.594, "generation (MWh)": 6649.75 }, "geometry": { "type": "Point", "coordinates": [ 77.072962972339738, 9.30994245724616 ] } },
{ "type": "Feature", "properties": { "name": "SABARMATI (D-F STATIONS)", "sector": "THERMAL", "CO2_emission": 11599.52988, "generation (MWh)": 11860.46 }, "geometry": { "type": "Point", "coordinates": [ 72.593889, 23.070555 ] } },
{ "type": "Feature", "properties": { "name": "SAGARDIGHI TPS", "sector": "THERMAL", "CO2_emission": 48723.53946, "generation (MWh)": 49819.57 }, "geometry": { "type": "Point", "coordinates": [ 88.1040001, 24.3688141 ] } },
{ "type": "Feature", "properties": { "name": "SAINJ HPS", "sector": "HYDRO", "CO2_emission": 51.48912, "generation (MWh)": 2145.38 }, "geometry": { "type": "Point", "coordinates": [ 77.810761191701928, 11.797971936251155 ] } },
{ "type": "Feature", "properties": { "name": "SALAL HPS", "sector": "HYDRO", "CO2_emission": 407.19456, "generation (MWh)": 16966.44 }, "geometry": { "type": "Point", "coordinates": [ 75.83581322823369, 31.955040486679323 ] } },
{ "type": "Feature", "properties": { "name": "SALAYA TPP", "sector": "THERMAL", "CO2_emission": 13207.18584, "generation (MWh)": 13504.28 }, "geometry": { "type": "Point", "coordinates": [ 69.7101, 22.3049 ] } },
{ "type": "Feature", "properties": { "name": "SAMAYANALLUR DG", "sector": "THER (DG)", "CO2_emission": 16.4304, "generation (MWh)": 16.8 }, "geometry": null },
{ "type": "Feature", "properties": { "name": "SANJAY GANDHI TPS", "sector": "THERMAL", "CO2_emission": 36881.07438, "generation (MWh)": 37710.71 }, "geometry": { "type": "Point", "coordinates": [ 81.064817, 23.305744 ] } },
{ "type": "Feature", "properties": { "name": "SANJAY HPS", "sector": "HYDRO", "CO2_emission": 68.286, "generation (MWh)": 2845.25 }, "geometry": { "type": "Point", "coordinates": [ 75.7406414, 31.9635936 ] } },
{ "type": "Feature", "properties": { "name": "SANTALDIH TPS", "sector": "THERMAL", "CO2_emission": 18163.92456, "generation (MWh)": 18572.52 }, "geometry": { "type": "Point", "coordinates": [ 86.4666, 23.6013 ] } },
{ "type": "Feature", "properties": { "name": "SARKARPATHY HPS", "sector": "HYDRO", "CO2_emission": 13.70736, "generation (MWh)": 571.14 }, "geometry": null },
{ "type": "Feature", "properties": { "name": "SASAN UMTPP", "sector": "THERMAL", "CO2_emission": 153161.37216, "generation (MWh)": 156606.72 }, "geometry": { "type": "Point", "coordinates": [ 82.6264733, 23.9775233 ] } },
{ "type": "Feature", "properties": { "name": "SATPURA TPS", "sector": "THERMAL", "CO2_emission": 21124.15452, "generation (MWh)": 21599.34 }, "geometry": { "type": "Point", "coordinates": [ 78.177072, 22.108133 ] } },
{ "type": "Feature", "properties": { "name": "SAWRA KUDDU HPS", "sector": "HYDRO", "CO2_emission": 15.18528, "generation (MWh)": 632.72 }, "geometry": { "type": "Point", "coordinates": [ 77.8225297, 31.055959 ] } },
{ "type": "Feature", "properties": { "name": "SEIONI TPP", "sector": "THERMAL", "CO2_emission": 16658.63586, "generation (MWh)": 17033.37 }, "geometry": { "type": "Point", "coordinates": [ 79.912341, 22.735479 ] } },
{ "type": "Feature", "properties": { "name": "SENGULAM HPS", "sector": "HYDRO", "CO2_emission": 16.9236, "generation (MWh)": 705.15 }, "geometry": null },
{ "type": "Feature", "properties": { "name": "SEWA-II HPS", "sector": "HYDRO", "CO2_emission": 48.00048, "generation (MWh)": 2000.02 }, "geometry": { "type": "Point", "coordinates": [ 75.915917621716162, 32.624130313145024 ] } },
{ "type": "Feature", "properties": { "name": "SGPL TPP", "sector": "THERMAL", "CO2_emission": 41069.76036, "generation (MWh)": 41993.62 }, "geometry": null },
{ "type": "Feature", "properties": { "name": "SHANAN HPS", "sector": "HYDRO", "CO2_emission": 59.31456, "generation (MWh)": 2471.44 }, "geometry": { "type": "Point", "coordinates": [ 75.71293925, 31.95475325 ] } },
{ "type": "Feature", "properties": { "name": "SHARAVATHI HPS", "sector": "HYDRO", "CO2_emission": 550.32696, "generation (MWh)": 22930.29 }, "geometry": null },
{ "type": "Feature", "properties": { "name": "SHIRPUR TPP", "sector": "THERMAL", "CO2_emission": 103.11054, "generation (MWh)": 105.43 }, "geometry": null },
{ "type": "Feature", "properties": { "name": "SHOLAYAR HPS", "sector": "HYDRO", "CO2_emission": 27.58392, "generation (MWh)": 1149.33 }, "geometry": { "type": "Point", "coordinates": [ 76.730392227907188, 10.304073590527064 ] } },
{ "type": "Feature", "properties": { "name": "SHOLAYAR HPS (TN)", "sector": "HYDRO", "CO2_emission": 36.95472, "generation (MWh)": 1539.78 }, "geometry": { "type": "Point", "coordinates": [ 75.665178250000025, 31.8903792 ] } },
{ "type": "Feature", "properties": { "name": "SHREE SINGAJI TPP", "sector": "THERMAL", "CO2_emission": 49831.3494, "generation (MWh)": 50952.3 }, "geometry": { "type": "Point", "coordinates": [ 76.531727, 22.09914 ] } },
{ "type": "Feature", "properties": { "name": "SHRINAGAR HPS", "sector": "HYDRO", "CO2_emission": 169.87608, "generation (MWh)": 7078.17 }, "geometry": { "type": "Point", "coordinates": [ 78.791549465011457, 30.230667524860671 ] } },
{ "type": "Feature", "properties": { "name": "SIKKA REP. TPS", "sector": "THERMAL", "CO2_emission": 8140.42212, "generation (MWh)": 8323.54 }, "geometry": { "type": "Point", "coordinates": [ 69.8276, 22.420828 ] } },
{ "type": "Feature", "properties": { "name": "SIMHADRI", "sector": "THERMAL", "CO2_emission": 53185.62534, "generation (MWh)": 54382.03 }, "geometry": { "type": "Point", "coordinates": [ 83.09166, 17.591 ] } },
{ "type": "Feature", "properties": { "name": "SIMHAPURI TPS", "sector": "THERMAL", "CO2_emission": 2435.14176, "generation (MWh)": 2489.92 }, "geometry": { "type": "Point", "coordinates": [ 80.086636, 14.204576 ] } },
{ "type": "Feature", "properties": { "name": "SINGARENI TPP", "sector": "THERMAL", "CO2_emission": 42206.568, "generation (MWh)": 43156.0 }, "geometry": { "type": "Point", "coordinates": [ 79.571570185631913, 18.822452168468701 ] } },
{ "type": "Feature", "properties": { "name": "SINGOLI BHATWARI HPS", "sector": "HYDRO", "CO2_emission": 22.76136, "generation (MWh)": 948.39 }, "geometry": { "type": "Point", "coordinates": [ 79.048269, 30.4102685 ] } },
{ "type": "Feature", "properties": { "name": "SINGRAULI STPS", "sector": "THERMAL", "CO2_emission": 71902.03188000001, "generation (MWh)": 73519.46 }, "geometry": { "type": "Point", "coordinates": [ 82.7063552, 24.1042119 ] } },
{ "type": "Feature", "properties": { "name": "SIPAT STPS", "sector": "THERMAL", "CO2_emission": 104569.44216000001, "generation (MWh)": 106921.72 }, "geometry": { "type": "Point", "coordinates": [ 82.29035, 22.131662 ] } },
{ "type": "Feature", "properties": { "name": "SIVASAMUNDRUM HPS", "sector": "HYDRO", "CO2_emission": 31.1688, "generation (MWh)": 1298.7 }, "geometry": null },
{ "type": "Feature", "properties": { "name": "SOLAPUR", "sector": "THERMAL", "CO2_emission": 2879.16354, "generation (MWh)": 2943.93 }, "geometry": { "type": "Point", "coordinates": [ 75.9832, 17.551296 ] } },
{ "type": "Feature", "properties": { "name": "SOLAPUR STPS", "sector": "THERMAL", "CO2_emission": 17869.40964, "generation (MWh)": 18271.38 }, "geometry": { "type": "Point", "coordinates": [ 75.9832, 17.551296 ] } },
{ "type": "Feature", "properties": { "name": "SORANG HPS", "sector": "HYDRO", "CO2_emission": 14.88096, "generation (MWh)": 620.04 }, "geometry": null },
{ "type": "Feature", "properties": { "name": "SOUTHERN REPL. TPS", "sector": "THERMAL", "CO2_emission": 1843.94076, "generation (MWh)": 1885.42 }, "geometry": { "type": "Point", "coordinates": [ 88.291512, 22.549591 ] } },
{ "type": "Feature", "properties": { "name": "SRAVANTHI CCPP", "sector": "THER (GT)", "CO2_emission": 145.49364, "generation (MWh)": 304.38 }, "geometry": { "type": "Point", "coordinates": [ 76.328666959013802, 15.266683177850227 ] } },
{ "type": "Feature", "properties": { "name": "SRISAILAM HPS", "sector": "HYDRO", "CO2_emission": 137.24904, "generation (MWh)": 5718.71 }, "geometry": { "type": "Point", "coordinates": [ 78.902993854906612, 16.095409435661939 ] } },
{ "type": "Feature", "properties": { "name": "SRISAILAM LB HPS", "sector": "HYDRO", "CO2_emission": 188.85696, "generation (MWh)": 7869.04 }, "geometry": { "type": "Point", "coordinates": [ 77.708487358083403, 31.494590129881239 ] } },
{ "type": "Feature", "properties": { "name": "S SAROVAR CHPH HPS", "sector": "HYDRO", "CO2_emission": 122.51736, "generation (MWh)": 5104.89 }, "geometry": { "type": "Point", "coordinates": [ 73.97745, 34.1039654 ] } },
{ "type": "Feature", "properties": { "name": "S SAROVAR RBPH HPS", "sector": "HYDRO", "CO2_emission": 294.28944, "generation (MWh)": 12262.06 }, "geometry": { "type": "Point", "coordinates": [ 75.899082153987308, 11.548462971041408 ] } },
{ "type": "Feature", "properties": { "name": "STERLITE TPP", "sector": "THERMAL", "CO2_emission": 5065.37496, "generation (MWh)": 5179.32 }, "geometry": { "type": "Point", "coordinates": [ 84.042036, 21.815743 ] } },
{ "type": "Feature", "properties": { "name": "SUBERNREKHA-I HPS", "sector": "HYDRO", "CO2_emission": 7.22208, "generation (MWh)": 300.92 }, "geometry": null },
{ "type": "Feature", "properties": { "name": "SUBERNREKHA-II HPS", "sector": "HYDRO", "CO2_emission": 8.7888, "generation (MWh)": 366.2 }, "geometry": null },
{ "type": "Feature", "properties": { "name": "SUGEN CCPP", "sector": "THER (GT)", "CO2_emission": 10142.30916, "generation (MWh)": 21218.22 }, "geometry": { "type": "Point", "coordinates": [ 77.779324481842494, 11.727509003265233 ] } },
{ "type": "Feature", "properties": { "name": "SURATGARH STPS", "sector": "THERMAL", "CO2_emission": 12766.70442, "generation (MWh)": 13053.89 }, "geometry": { "type": "Point", "coordinates": [ 74.018741, 29.181766 ] } },
{ "type": "Feature", "properties": { "name": "SURATGARH TPS", "sector": "THERMAL", "CO2_emission": 25151.13798, "generation (MWh)": 25716.91 }, "geometry": { "type": "Point", "coordinates": [ 74.018741, 29.181766 ] } },
{ "type": "Feature", "properties": { "name": "SURAT LIG. TPS", "sector": "THERMAL", "CO2_emission": 14425.7934, "generation (MWh)": 14750.3 }, "geometry": { "type": "Point", "coordinates": [ 73.106993, 21.397304 ] } },
{ "type": "Feature", "properties": { "name": "SURULIYAR HPS", "sector": "HYDRO", "CO2_emission": 6.76128, "generation (MWh)": 281.72 }, "geometry": null },
{ "type": "Feature", "properties": { "name": "SVPL TPP", "sector": "THERMAL", "CO2_emission": 543.0345, "generation (MWh)": 555.25 }, "geometry": { "type": "Point", "coordinates": [ 82.5254, 22.292 ] } },
{ "type": "Feature", "properties": { "name": "TALCHER (OLD) TPS", "sector": "THERMAL", "CO2_emission": 6763.30032, "generation (MWh)": 6915.44 }, "geometry": { "type": "Point", "coordinates": [ 85.0750266, 21.0970667 ] } },
{ "type": "Feature", "properties": { "name": "TALCHER STPS", "sector": "THERMAL", "CO2_emission": 103390.1013, "generation (MWh)": 105715.85 }, "geometry": { "type": "Point", "coordinates": [ 85.0750266, 21.0970667 ] } },
{ "type": "Feature", "properties": { "name": "TALWANDI SABO TPP", "sector": "THERMAL", "CO2_emission": 46826.08254, "generation (MWh)": 47879.43 }, "geometry": { "type": "Point", "coordinates": [ 75.238929, 29.92458 ] } },
{ "type": "Feature", "properties": { "name": "TAMNAR TPP", "sector": "THERMAL", "CO2_emission": 51544.88364, "generation (MWh)": 52704.38 }, "geometry": { "type": "Point", "coordinates": [ 83.451312, 22.098747 ] } },
{ "type": "Feature", "properties": { "name": "TANAKPUR HPS", "sector": "HYDRO", "CO2_emission": 59.9388, "generation (MWh)": 2497.45 }, "geometry": null },
{ "type": "Feature", "properties": { "name": "TANDA TPS", "sector": "THERMAL", "CO2_emission": 35389.7613, "generation (MWh)": 36185.85 }, "geometry": { "type": "Point", "coordinates": [ 82.601235, 26.5894846 ] } },
{ "type": "Feature", "properties": { "name": "TARAPUR", "sector": "NUCLEAR", "CO2_emission": 522.49848, "generation (MWh)": 43541.54 }, "geometry": { "type": "Point", "coordinates": [ 72.668000406644524, 19.832946158682745 ] } },
{ "type": "Feature", "properties": { "name": "TASHIDING HPS", "sector": "HYDRO", "CO2_emission": 50.70624, "generation (MWh)": 2112.76 }, "geometry": null },
{ "type": "Feature", "properties": { "name": "T B DAM HPS", "sector": "HYDRO", "CO2_emission": 19.3272, "generation (MWh)": 805.3 }, "geometry": { "type": "Point", "coordinates": [ 78.014018, 31.54437595 ] } },
{ "type": "Feature", "properties": { "name": "TEESTA-III HPS", "sector": "HYDRO", "CO2_emission": 678.24336, "generation (MWh)": 28260.14 }, "geometry": { "type": "Point", "coordinates": [ 88.441865223689916, 27.002319554799506 ] } },
{ "type": "Feature", "properties": { "name": "TEESTA LOW DAM-III HPS", "sector": "HYDRO", "CO2_emission": 64.35024, "generation (MWh)": 2681.26 }, "geometry": { "type": "Point", "coordinates": [ 88.441865223689916, 27.002319554799506 ] } },
{ "type": "Feature", "properties": { "name": "TEESTA LOW DAM-IV HPS", "sector": "HYDRO", "CO2_emission": 83.48064, "generation (MWh)": 3478.36 }, "geometry": { "type": "Point", "coordinates": [ 88.457165711760638, 26.927491633130852 ] } },
{ "type": "Feature", "properties": { "name": "TEESTA V HPS", "sector": "HYDRO", "CO2_emission": 308.19912, "generation (MWh)": 12841.63 }, "geometry": { "type": "Point", "coordinates": [ 77.756443098193728, 11.643589417814903 ] } },
{ "type": "Feature", "properties": { "name": "TEHRI ST-1 HPS", "sector": "HYDRO", "CO2_emission": 372.28176, "generation (MWh)": 15511.74 }, "geometry": { "type": "Point", "coordinates": [ 74.6448791, 34.4635286 ] } },
{ "type": "Feature", "properties": { "name": "TELANGANA STPP", "sector": "THERMAL", "CO2_emission": 17.48664, "generation (MWh)": 17.88 }, "geometry": { "type": "Point", "coordinates": [ 77.054892234262681, 10.031521015236132 ] } },
{ "type": "Feature", "properties": { "name": "TELANGANA STPP PH-1", "sector": "THERMAL", "CO2_emission": 1176.3384, "generation (MWh)": 1202.8 }, "geometry": { "type": "Point", "coordinates": [ 77.741981609087858, 11.575195827921501 ] } },
{ "type": "Feature", "properties": { "name": "TENUGHAT TPS", "sector": "THERMAL", "CO2_emission": 10517.89122, "generation (MWh)": 10754.49 }, "geometry": { "type": "Point", "coordinates": [ 85.7652325, 23.7276632 ] } },
{ "type": "Feature", "properties": { "name": "THAMMINAPATNAM TPS", "sector": "THERMAL", "CO2_emission": 496.3839, "generation (MWh)": 507.55 }, "geometry": { "type": "Point", "coordinates": [ 80.086636, 14.204576 ] } },
{ "type": "Feature", "properties": { "name": "TILLARI HPS", "sector": "HYDRO", "CO2_emission": 11.96568, "generation (MWh)": 498.57 }, "geometry": null },
{ "type": "Feature", "properties": { "name": "TIRORA TPS", "sector": "THERMAL", "CO2_emission": 94583.4069, "generation (MWh)": 96711.05 }, "geometry": { "type": "Point", "coordinates": [ 79.96731, 21.412502 ] } },
{ "type": "Feature", "properties": { "name": "TORANGALLU TPS(SBU-I)", "sector": "THERMAL", "CO2_emission": 6688.99188, "generation (MWh)": 6839.46 }, "geometry": { "type": "Point", "coordinates": [ 76.6621387, 15.186771 ] } },
{ "type": "Feature", "properties": { "name": "TORANGALLU TPS(SBU-II)", "sector": "THERMAL", "CO2_emission": 9758.78718, "generation (MWh)": 9978.31 }, "geometry": { "type": "Point", "coordinates": [ 76.6621387, 15.186771 ] } },
{ "type": "Feature", "properties": { "name": "TRIPURA CCPP", "sector": "THER (GT)", "CO2_emission": 10565.2579, "generation (MWh)": 22103.05 }, "geometry": { "type": "Point", "coordinates": [ 78.344837538215018, 18.966719554588696 ] } },
{ "type": "Feature", "properties": { "name": "TROMBAY CCPP", "sector": "THER (GT)", "CO2_emission": 2309.457, "generation (MWh)": 4831.5 }, "geometry": { "type": "Point", "coordinates": [ 77.071653740363502, 28.796656836599979 ] } },
{ "type": "Feature", "properties": { "name": "TROMBAY TPS", "sector": "THERMAL", "CO2_emission": 20390.87946, "generation (MWh)": 20849.57 }, "geometry": { "type": "Point", "coordinates": [ 72.8979, 19.0027 ] } },
{ "type": "Feature", "properties": { "name": "TUIRIAL HPS", "sector": "HYDRO", "CO2_emission": 18.44376, "generation (MWh)": 768.49 }, "geometry": null },
{ "type": "Feature", "properties": { "name": "TUTICORIN (JV) TPP", "sector": "THERMAL", "CO2_emission": 11904.07908, "generation (MWh)": 12171.86 }, "geometry": { "type": "Point", "coordinates": [ 78.171083, 8.760363 ] } },
{ "type": "Feature", "properties": { "name": "TUTICORIN TPP ST-IV", "sector": "THERMAL", "CO2_emission": 3275.83056, "generation (MWh)": 3349.52 }, "geometry": { "type": "Point", "coordinates": [ 78.171083, 8.760363 ] } },
{ "type": "Feature", "properties": { "name": "TUTICORIN TPS", "sector": "THERMAL", "CO2_emission": 25171.59774, "generation (MWh)": 25737.83 }, "geometry": { "type": "Point", "coordinates": [ 78.171083, 8.760363 ] } },
{ "type": "Feature", "properties": { "name": "UCHPINDA TPP", "sector": "THERMAL", "CO2_emission": 25543.44312, "generation (MWh)": 26118.04 }, "geometry": { "type": "Point", "coordinates": [ 83.12081, 21.8864 ] } },
{ "type": "Feature", "properties": { "name": "UDUPI TPP", "sector": "THERMAL", "CO2_emission": 10767.84846, "generation (MWh)": 11010.07 }, "geometry": { "type": "Point", "coordinates": [ 74.8002, 13.1596 ] } },
{ "type": "Feature", "properties": { "name": "UKAI HPS", "sector": "HYDRO", "CO2_emission": 77.34552, "generation (MWh)": 3222.73 }, "geometry": { "type": "Point", "coordinates": [ 77.70171485, 11.48545135 ] } },
{ "type": "Feature", "properties": { "name": "UKAI TPS", "sector": "THERMAL", "CO2_emission": 25337.71104, "generation (MWh)": 25907.68 }, "geometry": { "type": "Point", "coordinates": [ 73.5574, 21.2093 ] } },
{ "type": "Feature", "properties": { "name": "UMIAM HPS ST-I", "sector": "HYDRO", "CO2_emission": 12.62616, "generation (MWh)": 526.09 }, "geometry": { "type": "Point", "coordinates": [ 76.853652123140932, 10.01753099086536 ] } },
{ "type": "Feature", "properties": { "name": "UMIAM HPS ST-IV", "sector": "HYDRO", "CO2_emission": 19.05576, "generation (MWh)": 793.99 }, "geometry": { "type": "Point", "coordinates": [ 81.65707021038385, 25.19710408619293 ] } },
{ "type": "Feature", "properties": { "name": "UNCHAHAR TPS", "sector": "THERMAL", "CO2_emission": 39804.4044, "generation (MWh)": 40699.8 }, "geometry": { "type": "Point", "coordinates": [ 81.3272384, 25.9137597 ] } },
{ "type": "Feature", "properties": { "name": "UNOSUGEN CCPP", "sector": "THER (GT)", "CO2_emission": 3027.35564, "generation (MWh)": 6333.38 }, "geometry": null },
{ "type": "Feature", "properties": { "name": "UPPER INDRAVATI HPS", "sector": "HYDRO", "CO2_emission": 189.2256, "generation (MWh)": 7884.4 }, "geometry": { "type": "Point", "coordinates": [ 82.859584953873892, 19.426975803352363 ] } },
{ "type": "Feature", "properties": { "name": "UPPER KOLAB HPS", "sector": "HYDRO", "CO2_emission": 71.68776, "generation (MWh)": 2986.99 }, "geometry": { "type": "Point", "coordinates": [ 82.59373095, 18.83162945 ] } },