{
"type": "FeatureCollection",
"name": "steel_annual_mean",
"features": [
{ "type": "Feature", "properties": { "plant_name": "ArcelorMittal Nippon Steel Hazira Plant", "CO2_emission": null, "lat": 21.112377, "lon": 72.647304, "CO2_emission_capacity": 111103499.99999999 }, "geometry": { "type": "Point", "coordinates": [ 72.647304, 21.112377 ] } },
{ "type": "Feature", "properties": { "plant_name": "ArcelorMittal Nippon Steel Kendrapara plant", "CO2_emission": null, "lat": 20.71042, "lon": 86.282806, "CO2_emission_capacity": 61199999.999999993 }, "geometry": { "type": "Point", "coordinates": [ 86.282806, 20.71042 ] } },
{ "type": "Feature", "properties": { "plant_name": "ArcelorMittal Nippon Steel Paradip Steel Plant", "CO2_emission": null, "lat": 20.284771, "lon": 86.658266, "CO2_emission_capacity": 0.0 }, "geometry": { "type": "Point", "coordinates": [ 86.658266, 20.284771 ] } },
{ "type": "Feature", "properties": { "plant_name": "Arjas Steel Tadipatri plant", "CO2_emission": 814725.0, "lat": 14.873471, "lon": 78.048425, "CO2_emission_capacity": 5849700.0 }, "geometry": { "type": "Point", "coordinates": [ 78.048425, 14.873471 ] } },
{ "type": "Feature", "properties": { "plant_name": "Atibir Industries Bhorandiha steel plant", "CO2_emission": null, "lat": 24.145239, "lon": 86.334999, "CO2_emission_capacity": 3060000.0 }, "geometry": { "type": "Point", "coordinates": [ 86.334999, 24.145239 ] } },
{ "type": "Feature", "properties": { "plant_name": "BMM Ispat Danapur steel plant", "CO2_emission": null, "lat": 15.16972, "lon": 76.37971, "CO2_emission_capacity": 9812400.0 }, "geometry": { "type": "Point", "coordinates": [ 76.37971, 15.16972 ] } },
{ "type": "Feature", "properties": { "plant_name": "Electrosteel Bokaro steel plant", "CO2_emission": 6489750.0, "lat": 23.632907, "lon": 86.293671, "CO2_emission_capacity": 21930000.0 }, "geometry": { "type": "Point", "coordinates": [ 86.293671, 23.632907 ] } },
{ "type": "Feature", "properties": { "plant_name": "Electrosteel Castings Srikalahasthi Steel Plant", "CO2_emission": null, "lat": 13.717188, "lon": 79.630588, "CO2_emission_capacity": 0.0 }, "geometry": { "type": "Point", "coordinates": [ 79.630588, 13.717188 ] } },
{ "type": "Feature", "properties": { "plant_name": "Evonith Metallics Wardha Steel Plant", "CO2_emission": null, "lat": 20.704605, "lon": 78.620293, "CO2_emission_capacity": 5100000.0 }, "geometry": { "type": "Point", "coordinates": [ 78.620293, 20.704605 ] } },
{ "type": "Feature", "properties": { "plant_name": "Evonith Value Steel Wardha Steel Plant", "CO2_emission": null, "lat": 20.696412, "lon": 78.638548, "CO2_emission_capacity": 0.0 }, "geometry": { "type": "Point", "coordinates": [ 78.638548, 20.696412 ] } },
{ "type": "Feature", "properties": { "plant_name": "Godawari Power and Ispat Sarora Steel Plant", "CO2_emission": null, "lat": 21.565032, "lon": 81.739447, "CO2_emission_capacity": 10710000.0 }, "geometry": { "type": "Point", "coordinates": [ 81.739447, 21.565032 ] } },
{ "type": "Feature", "properties": { "plant_name": "Godawari Power and Ispat Siltara steel plant", "CO2_emission": null, "lat": 21.376214, "lon": 81.681888, "CO2_emission_capacity": 3302249.9999999995 }, "geometry": { "type": "Point", "coordinates": [ 81.681888, 21.376214 ] } },
{ "type": "Feature", "properties": { "plant_name": "Hospet Steels Hospet plant", "CO2_emission": null, "lat": 15.339055, "lon": 76.251696, "CO2_emission_capacity": 9177449.9999999981 }, "geometry": { "type": "Point", "coordinates": [ 76.251696, 15.339055 ] } },
{ "type": "Feature", "properties": { "plant_name": "JSOL Odisha steel plant", "CO2_emission": 15966824.999999996, "lat": 20.884896, "lon": 84.991539, "CO2_emission_capacity": 129157499.99999999 }, "geometry": { "type": "Point", "coordinates": [ 84.991539, 20.884896 ] } },
{ "type": "Feature", "properties": { "plant_name": "JSPL Asanboni Steel Plant", "CO2_emission": null, "lat": 24.131037, "lon": 87.438728, "CO2_emission_capacity": 32384999.999999996 }, "geometry": { "type": "Point", "coordinates": [ 87.438728, 24.131037 ] } },
{ "type": "Feature", "properties": { "plant_name": "JSPL Krishnapatnam steel plant", "CO2_emission": null, "lat": 14.254675, "lon": 80.108702, "CO2_emission_capacity": 7649999.9999999991 }, "geometry": { "type": "Point", "coordinates": [ 80.108702, 14.254675 ] } },
{ "type": "Feature", "properties": { "plant_name": "JSPL Patratu steel plant", "CO2_emission": null, "lat": 23.632991, "lon": 85.325308, "CO2_emission_capacity": 23460000.0 }, "geometry": { "type": "Point", "coordinates": [ 85.325308, 23.632991 ] } },
{ "type": "Feature", "properties": { "plant_name": "JSPL Raigarh steel plant", "CO2_emission": null, "lat": 21.922703, "lon": 83.347178, "CO2_emission_capacity": 70813500.0 }, "geometry": { "type": "Point", "coordinates": [ 83.347178, 21.922703 ] } },
{ "type": "Feature", "properties": { "plant_name": "JSW BPSL Jarkhand steel plant", "CO2_emission": null, "lat": 22.665526, "lon": 85.64622, "CO2_emission_capacity": 7649999.9999999991 }, "geometry": { "type": "Point", "coordinates": [ 85.64622, 22.665526 ] } },
{ "type": "Feature", "properties": { "plant_name": "JSW BPSL Jharsuguda steel plant", "CO2_emission": null, "lat": 21.763989, "lon": 84.022529, "CO2_emission_capacity": 23638500.0 }, "geometry": { "type": "Point", "coordinates": [ 84.022529, 21.763989 ] } },
{ "type": "Feature", "properties": { "plant_name": "JSW Bengal Steel Salboni plant", "CO2_emission": null, "lat": 22.575726, "lon": 87.310258, "CO2_emission_capacity": 25500000.0 }, "geometry": { "type": "Point", "coordinates": [ 87.310258, 22.575726 ] } },
{ "type": "Feature", "properties": { "plant_name": "JSW Kadapa steel plant", "CO2_emission": null, "lat": 14.76855, "lon": 78.403263, "CO2_emission_capacity": 7649999.9999999991 }, "geometry": { "type": "Point", "coordinates": [ 78.403263, 14.76855 ] } },
{ "type": "Feature", "properties": { "plant_name": "JSW Steel Dolvi steel plant", "CO2_emission": null, "lat": 18.690312, "lon": 73.035902, "CO2_emission_capacity": 50490000.0 }, "geometry": { "type": "Point", "coordinates": [ 73.035902, 18.690312 ] } },
{ "type": "Feature", "properties": { "plant_name": "JSW Steel Jharkhand steel plant", "CO2_emission": null, "lat": 23.188108, "lon": 85.715097, "CO2_emission_capacity": 53549999.999999993 }, "geometry": { "type": "Point", "coordinates": [ 85.715097, 23.188108 ] } },
{ "type": "Feature", "properties": { "plant_name": "JSW Steel Raigarh steel plant", "CO2_emission": null, "lat": 21.983709, "lon": 83.238133, "CO2_emission_capacity": 6120000.0 }, "geometry": { "type": "Point", "coordinates": [ 83.238133, 21.983709 ] } },
{ "type": "Feature", "properties": { "plant_name": "JSW Steel Salav DRI plant", "CO2_emission": null, "lat": 18.530853, "lon": 72.947091, "CO2_emission_capacity": 16447500.0 }, "geometry": { "type": "Point", "coordinates": [ 72.947091, 18.530853 ] } },
{ "type": "Feature", "properties": { "plant_name": "JSW Steel Salem steel plant", "CO2_emission": 5538599.9999999991, "lat": 11.814912, "lon": 77.918465, "CO2_emission_capacity": 6696299.9999999991 }, "geometry": { "type": "Point", "coordinates": [ 77.918465, 11.814912 ] } },
{ "type": "Feature", "properties": { "plant_name": "JSW Steel Vijayanagar steel plant", "CO2_emission": null, "lat": 15.180423, "lon": 76.663134, "CO2_emission_capacity": 72088500.0 }, "geometry": { "type": "Point", "coordinates": [ 76.663134, 15.180423 ] } },
{ "type": "Feature", "properties": { "plant_name": "JSW Utkal Steel Rajnagar plant", "CO2_emission": null, "lat": 20.259383, "lon": 86.6482, "CO2_emission_capacity": 71910000.0 }, "geometry": { "type": "Point", "coordinates": [ 86.6482, 20.259383 ] } },
{ "type": "Feature", "properties": { "plant_name": "JSW Vijayanagar Metallics steel plant", "CO2_emission": null, "lat": 15.203176, "lon": 76.659122, "CO2_emission_capacity": 24225000.0 }, "geometry": { "type": "Point", "coordinates": [ 76.659122, 15.203176 ] } },
{ "type": "Feature", "properties": { "plant_name": "Jai Balaji Durgapur Unit IV steel plant", "CO2_emission": null, "lat": 23.487077, "lon": 87.369565, "CO2_emission_capacity": 4266150.0 }, "geometry": { "type": "Point", "coordinates": [ 87.369565, 23.487077 ] } },
{ "type": "Feature", "properties": { "plant_name": "Jai Balaji Jyoti Steels Sundargarh plant", "CO2_emission": null, "lat": 22.085338, "lon": 84.86184, "CO2_emission_capacity": 2896799.9999999995 }, "geometry": { "type": "Point", "coordinates": [ 84.86184, 22.085338 ] } },
{ "type": "Feature", "properties": { "plant_name": "Jai Balaji Steels Raghunnathpur plant", "CO2_emission": null, "lat": 23.331734, "lon": 86.363224, "CO2_emission_capacity": 32078999.999999996 }, "geometry": { "type": "Point", "coordinates": [ 86.363224, 23.331734 ] } },
{ "type": "Feature", "properties": { "plant_name": "Jayaswal Neco Industries Raipur steel plant", "CO2_emission": null, "lat": 21.354495, "lon": 81.676444, "CO2_emission_capacity": 11398500.0 }, "geometry": { "type": "Point", "coordinates": [ 81.676444, 21.354495 ] } },
{ "type": "Feature", "properties": { "plant_name": "Jindal Stainless Hisar steel plant", "CO2_emission": null, "lat": 29.127253, "lon": 75.773075, "CO2_emission_capacity": 2039999.9999999998 }, "geometry": { "type": "Point", "coordinates": [ 75.773075, 29.127253 ] } },
{ "type": "Feature", "properties": { "plant_name": "Jindal Stainless Jajpur steel plant", "CO2_emission": null, "lat": 20.954939, "lon": 86.051986, "CO2_emission_capacity": 15401999.999999998 }, "geometry": { "type": "Point", "coordinates": [ 86.051986, 20.954939 ] } },
{ "type": "Feature", "properties": { "plant_name": "Lloyds Metals and Energy Ltd Ghugus Steel Plant", "CO2_emission": null, "lat": 19.929837, "lon": 79.119344, "CO2_emission_capacity": 6298500.0 }, "geometry": { "type": "Point", "coordinates": [ 79.119344, 19.929837 ] } },
{ "type": "Feature", "properties": { "plant_name": "Lloyds Metals and Energy Ltd Konsari Steel Plant", "CO2_emission": null, "lat": 19.770409, "lon": 79.813599, "CO2_emission_capacity": 8843400.0 }, "geometry": { "type": "Point", "coordinates": [ 79.813599, 19.770409 ] } },
{ "type": "Feature", "properties": { "plant_name": "MSP Steel & Power Raigarh plant", "CO2_emission": null, "lat": 21.87673, "lon": 83.554495, "CO2_emission_capacity": 6561150.0 }, "geometry": { "type": "Point", "coordinates": [ 83.554495, 21.87673 ] } },
{ "type": "Feature", "properties": { "plant_name": "Maithan Ispat Kalinganagar Steel Plant", "CO2_emission": null, "lat": 20.924139, "lon": 86.04044, "CO2_emission_capacity": 4488000.0 }, "geometry": { "type": "Point", "coordinates": [ 86.04044, 20.924139 ] } },
{ "type": "Feature", "properties": { "plant_name": "Mesco Steel Kalinganagar plant", "CO2_emission": null, "lat": 20.976277, "lon": 86.044419, "CO2_emission_capacity": 17850000.0 }, "geometry": { "type": "Point", "coordinates": [ 86.044419, 20.976277 ] } },
{ "type": "Feature", "properties": { "plant_name": "Mono Steel Gujarat plant", "CO2_emission": null, "lat": 23.312265, "lon": 70.201953, "CO2_emission_capacity": 2603549.9999999995 }, "geometry": { "type": "Point", "coordinates": [ 70.201953, 23.312265 ] } },
{ "type": "Feature", "properties": { "plant_name": "NMDC Karnataka steel plant", "CO2_emission": null, "lat": 15.186288, "lon": 76.916591, "CO2_emission_capacity": 7649999.9999999991 }, "geometry": { "type": "Point", "coordinates": [ 76.916591, 15.186288 ] } },
{ "type": "Feature", "properties": { "plant_name": "NMDC Nagarnar steel plant", "CO2_emission": null, "lat": 19.0931901, "lon": 82.17, "CO2_emission_capacity": 16118550.0 }, "geometry": { "type": "Point", "coordinates": [ 82.17, 19.0931901 ] } },
{ "type": "Feature", "properties": { "plant_name": "Neelachal Ispat Nigam steel plant", "CO2_emission": 0.0, "lat": 20.998641, "lon": 86.019102, "CO2_emission_capacity": 28304999.999999996 }, "geometry": { "type": "Point", "coordinates": [ 86.019102, 20.998641 ] } },
{ "type": "Feature", "properties": { "plant_name": "Nilachal Iron & Power Gamharia Steel Plant", "CO2_emission": null, "lat": 22.874863, "lon": 86.063646, "CO2_emission_capacity": 3758700.0 }, "geometry": { "type": "Point", "coordinates": [ 86.063646, 22.874863 ] } },
{ "type": "Feature", "properties": { "plant_name": "OMPL Jharsuguda Steel Plant", "CO2_emission": null, "lat": 21.869228, "lon": 84.013348, "CO2_emission_capacity": 0.0 }, "geometry": { "type": "Point", "coordinates": [ 84.013348, 21.869228 ] } },
{ "type": "Feature", "properties": { "plant_name": "Orissa Alloy Steel Kharagpur Plant", "CO2_emission": null, "lat": 22.364258, "lon": 87.309047, "CO2_emission_capacity": 10312199.999999998 }, "geometry": { "type": "Point", "coordinates": [ 87.309047, 22.364258 ] } },
{ "type": "Feature", "properties": { "plant_name": "Orissa Metaliks Kharagpur Steel Plant", "CO2_emission": null, "lat": 22.378355, "lon": 87.281773, "CO2_emission_capacity": 5431500.0 }, "geometry": { "type": "Point", "coordinates": [ 87.281773, 22.378355 ] } },
{ "type": "Feature", "properties": { "plant_name": "Orissa Metaliks Markuta steel plant", "CO2_emission": null, "lat": 21.840226, "lon": 83.982815, "CO2_emission_capacity": 9503849.9999999981 }, "geometry": { "type": "Point", "coordinates": [ 83.982815, 21.840226 ] } },
{ "type": "Feature", "properties": { "plant_name": "Orissa Sponge Iron and Steel plant", "CO2_emission": null, "lat": 21.801994, "lon": 85.56751, "CO2_emission_capacity": 3432299.9999999995 }, "geometry": { "type": "Point", "coordinates": [ 85.56751, 21.801994 ] } },
{ "type": "Feature", "properties": { "plant_name": "Orissa Steel and Power Jhargram Steel Plant", "CO2_emission": null, "lat": 22.3591, "lon": 87.017184, "CO2_emission_capacity": 9690000.0 }, "geometry": { "type": "Point", "coordinates": [ 87.017184, 22.3591 ] } },
{ "type": "Feature", "properties": { "plant_name": "Posco Maharashtra Steel Plant", "CO2_emission": null, "lat": 18.387833, "lon": 73.345212, "CO2_emission_capacity": 0.0 }, "geometry": { "type": "Point", "coordinates": [ 73.345212, 18.387833 ] } },
{ "type": "Feature", "properties": { "plant_name": "Prakash Industries Janjgir steel plant", "CO2_emission": null, "lat": 22.004694, "lon": 82.671666, "CO2_emission_capacity": 6247500.0 }, "geometry": { "type": "Point", "coordinates": [ 82.671666, 22.004694 ] } },
{ "type": "Feature", "properties": { "plant_name": "Prakash Sponge Iron and Power Challakere Steel Plant", "CO2_emission": null, "lat": 14.152912, "lon": 76.665824, "CO2_emission_capacity": 4707299.9999999991 }, "geometry": { "type": "Point", "coordinates": [ 76.665824, 14.152912 ] } },
{ "type": "Feature", "properties": { "plant_name": "Ramsarup Industries Kharagpur steel plant", "CO2_emission": null, "lat": 22.977477, "lon": 88.457443, "CO2_emission_capacity": 4207500.0 }, "geometry": { "type": "Point", "coordinates": [ 88.457443, 22.977477 ] } },
{ "type": "Feature", "properties": { "plant_name": "Rashmi Metaliks Jamuria steel plant", "CO2_emission": null, "lat": 23.706343, "lon": 87.07774, "CO2_emission_capacity": 6375000.0 }, "geometry": { "type": "Point", "coordinates": [ 87.07774, 23.706343 ] } },
{ "type": "Feature", "properties": { "plant_name": "Rashmi Metaliks Kharagpur steel plant", "CO2_emission": null, "lat": 22.360664, "lon": 87.295932, "CO2_emission_capacity": 1784999.9999999998 }, "geometry": { "type": "Point", "coordinates": [ 87.295932, 22.360664 ] } },
{ "type": "Feature", "properties": { "plant_name": "Rungta Mines Dhenkanal steel plant", "CO2_emission": null, "lat": 20.764524, "lon": 85.299318, "CO2_emission_capacity": 42286649.999999993 }, "geometry": { "type": "Point", "coordinates": [ 85.299318, 20.764524 ] } },
{ "type": "Feature", "properties": { "plant_name": "Rungta Mines Kamanda steel plant", "CO2_emission": null, "lat": 21.928511, "lon": 85.223988, "CO2_emission_capacity": 7675499.9999999991 }, "geometry": { "type": "Point", "coordinates": [ 85.223988, 21.928511 ] } },
{ "type": "Feature", "properties": { "plant_name": "Rungta Mines Karakhendra Steel Plant", "CO2_emission": null, "lat": 22.140174, "lon": 85.414616, "CO2_emission_capacity": 3381299.9999999995 }, "geometry": { "type": "Point", "coordinates": [ 85.414616, 22.140174 ] } },
{ "type": "Feature", "properties": { "plant_name": "SAIL Alloy Steel Plant", "CO2_emission": null, "lat": 23.522882, "lon": 87.275935, "CO2_emission_capacity": 1275000.0 }, "geometry": { "type": "Point", "coordinates": [ 87.275935, 23.522882 ] } },
{ "type": "Feature", "properties": { "plant_name": "SAIL Bhilai steel plant", "CO2_emission": 26308349.999999996, "lat": 21.185157, "lon": 81.394207, "CO2_emission_capacity": 44625000.0 }, "geometry": { "type": "Point", "coordinates": [ 81.394207, 21.185157 ] } },
{ "type": "Feature", "properties": { "plant_name": "SAIL Bokaro steel plant", "CO2_emission": 20465025.0, "lat": 23.671677, "lon": 86.10687, "CO2_emission_capacity": 48513750.0 }, "geometry": { "type": "Point", "coordinates": [ 86.10687, 23.671677 ] } },
{ "type": "Feature", "properties": { "plant_name": "SAIL Durgapur steel plant", "CO2_emission": 11299050.0, "lat": 23.54843, "lon": 87.245247, "CO2_emission_capacity": 26010000.0 }, "geometry": { "type": "Point", "coordinates": [ 87.245247, 23.54843 ] } },
{ "type": "Feature", "properties": { "plant_name": "SAIL IISCO steel plant", "CO2_emission": 11265050.0, "lat": 23.673236, "lon": 86.926179, "CO2_emission_capacity": 24735000.0 }, "geometry": { "type": "Point", "coordinates": [ 86.926179, 23.673236 ] } },
{ "type": "Feature", "properties": { "plant_name": "SAIL Paradip steel plant", "CO2_emission": null, "lat": 20.317455, "lon": 86.609001, "CO2_emission_capacity": 7649999.9999999991 }, "geometry": { "type": "Point", "coordinates": [ 86.609001, 20.317455 ] } },
{ "type": "Feature", "properties": { "plant_name": "SAIL Rourkela steel plant", "CO2_emission": 20079549.999999996, "lat": 22.210804, "lon": 84.86895, "CO2_emission_capacity": 37762950.0 }, "geometry": { "type": "Point", "coordinates": [ 84.86895, 22.210804 ] } },
{ "type": "Feature", "properties": { "plant_name": "Shakambhari Ispat and Power Purulia Steel Plant", "CO2_emission": null, "lat": 23.613861, "lon": 86.789527, "CO2_emission_capacity": 3983100.0 }, "geometry": { "type": "Point", "coordinates": [ 86.789527, 23.613861 ] } },
{ "type": "Feature", "properties": { "plant_name": "Shri Bajrang Power & Ispat Tilda Steel Plant", "CO2_emission": null, "lat": 21.48619, "lon": 81.771697, "CO2_emission_capacity": 5482500.0 }, "geometry": { "type": "Point", "coordinates": [ 81.771697, 21.48619 ] } },
{ "type": "Feature", "properties": { "plant_name": "Shyam Metalics Jamuria Steel Plant", "CO2_emission": null, "lat": 23.693749, "lon": 87.122711, "CO2_emission_capacity": 10426949.999999998 }, "geometry": { "type": "Point", "coordinates": [ 87.122711, 23.693749 ] } },
{ "type": "Feature", "properties": { "plant_name": "Shyam Metalics Sambalpur Steel Plant", "CO2_emission": null, "lat": 21.680344, "lon": 84.04179, "CO2_emission_capacity": 11273550.0 }, "geometry": { "type": "Point", "coordinates": [ 84.04179, 21.680344 ] } },
{ "type": "Feature", "properties": { "plant_name": "Shyam Steel Durgapur plant", "CO2_emission": null, "lat": 23.50844, "lon": 87.282253, "CO2_emission_capacity": 4641000.0 }, "geometry": { "type": "Point", "coordinates": [ 87.282253, 23.50844 ] } },
{ "type": "Feature", "properties": { "plant_name": "Shyam Steel Mejia Steel Plant", "CO2_emission": null, "lat": 23.564157, "lon": 87.089552, "CO2_emission_capacity": 4281450.0 }, "geometry": { "type": "Point", "coordinates": [ 87.089552, 23.564157 ] } },
{ "type": "Feature", "properties": { "plant_name": "Shyam Steel Raghunathpur Steel Plant", "CO2_emission": null, "lat": 23.590212, "lon": 86.724603, "CO2_emission_capacity": 11288849.999999998 }, "geometry": { "type": "Point", "coordinates": [ 86.724603, 23.590212 ] } },
{ "type": "Feature", "properties": { "plant_name": "Sunflag Iron and Steel plant", "CO2_emission": null, "lat": 21.232929, "lon": 79.632398, "CO2_emission_capacity": 2771850.0 }, "geometry": { "type": "Point", "coordinates": [ 79.632398, 21.232929 ] } },
{ "type": "Feature", "properties": { "plant_name": "Swadesh Metallics Simga Steel Plant", "CO2_emission": null, "lat": 21.625706, "lon": 81.705254, "CO2_emission_capacity": 3264000.0 }, "geometry": { "type": "Point", "coordinates": [ 81.705254, 21.625706 ] } },
{ "type": "Feature", "properties": { "plant_name": "Tata Metaliks Kharagpur steel plant", "CO2_emission": null, "lat": 22.385611, "lon": 87.287179, "CO2_emission_capacity": 2180250.0 }, "geometry": { "type": "Point", "coordinates": [ 87.287179, 22.385611 ] } },
{ "type": "Feature", "properties": { "plant_name": "Tata Sponge Iron Odisha plant", "CO2_emission": null, "lat": 22.055716, "lon": 85.466124, "CO2_emission_capacity": 8830650.0 }, "geometry": { "type": "Point", "coordinates": [ 85.466124, 22.055716 ] } },
{ "type": "Feature", "properties": { "plant_name": "Tata Steel BSL Meramandali steel plant", "CO2_emission": 24276000.0, "lat": 20.796053, "lon": 85.260382, "CO2_emission_capacity": 66644250.0 }, "geometry": { "type": "Point", "coordinates": [ 85.260382, 20.796053 ] } },
{ "type": "Feature", "properties": { "plant_name": "Tata Steel Jamshedpur steel plant", "CO2_emission": 54544499.999999993, "lat": 22.788598, "lon": 86.1996, "CO2_emission_capacity": 58700999.999999993 }, "geometry": { "type": "Point", "coordinates": [ 86.1996, 22.788598 ] } },
{ "type": "Feature", "properties": { "plant_name": "Tata Steel Kalinganagar steel plant", "CO2_emission": 17429250.0, "lat": 20.970411, "lon": 86.015211, "CO2_emission_capacity": 36975000.0 }, "geometry": { "type": "Point", "coordinates": [ 86.015211, 20.970411 ] } },
{ "type": "Feature", "properties": { "plant_name": "Tata Steel Long Products Gamharia steel plant", "CO2_emission": null, "lat": 22.812895, "lon": 86.084022, "CO2_emission_capacity": 5479950.0 }, "geometry": { "type": "Point", "coordinates": [ 86.084022, 22.812895 ] } },
{ "type": "Feature", "properties": { "plant_name": "Tata Steel Ludhiana steel plant", "CO2_emission": null, "lat": 30.946888, "lon": 75.987521, "CO2_emission_capacity": 1912499.9999999998 }, "geometry": { "type": "Point", "coordinates": [ 75.987521, 30.946888 ] } },
{ "type": "Feature", "properties": { "plant_name": "Uttam Galva Ferrous Bellary Steel Plant", "CO2_emission": null, "lat": 15.184613, "lon": 76.824905, "CO2_emission_capacity": 31783199.999999996 }, "geometry": { "type": "Point", "coordinates": [ 76.824905, 15.184613 ] } },
{ "type": "Feature", "properties": { "plant_name": "Vedanta Sesa Goa Pig Iron Plant", "CO2_emission": null, "lat": 15.526866, "lon": 73.986671, "CO2_emission_capacity": 0.0 }, "geometry": { "type": "Point", "coordinates": [ 73.986671, 15.526866 ] } },
{ "type": "Feature", "properties": { "plant_name": "Vizag Steel plant", "CO2_emission": 22354149.999999996, "lat": 17.612846, "lon": 83.191918, "CO2_emission_capacity": 37740000.0 }, "geometry": { "type": "Point", "coordinates": [ 83.191918, 17.612846 ] } },
{ "type": "Feature", "properties": { "plant_name": "Welspun Metallics Anjar Steel plant", "CO2_emission": null, "lat": 23.112781, "lon": 70.0866885, "CO2_emission_capacity": 27213600.0 }, "geometry": { "type": "Point", "coordinates": [ 70.0866885, 23.112781 ] } },
{ "type": "Feature", "properties": { "plant_name": "Xindia Steels Karnataka plant", "CO2_emission": null, "lat": 15.293421, "lon": 76.234947, "CO2_emission_capacity": 25500000.0 }, "geometry": { "type": "Point", "coordinates": [ 76.234947, 15.293421 ] } },
{ "type": "Feature", "properties": { "plant_name": "YSR Steel Corporation Kadapa steel plant", "CO2_emission": null, "lat": 14.758576, "lon": 78.43186, "CO2_emission_capacity": 16406699.999999996 }, "geometry": { "type": "Point", "coordinates": [ 78.43186, 14.758576 ] } },
{ "type": "Feature", "properties": { "plant_name": "Yazdani Steel and Power Kalinganagar steel plant", "CO2_emission": null, "lat": 20.928285, "lon": 86.036604, "CO2_emission_capacity": 3192600.0 }, "geometry": { "type": "Point", "coordinates": [ 86.036604, 20.928285 ] } }
]
}
